[
    {
        "postcode": "0872",
        "locality": "AMATA",
        "state": "SA",
        "long": 131.1738799,
        "lat": -26.12766197
    },
    {
        "postcode": "0872",
        "locality": "AYERS RANGE SOUTH",
        "state": "SA",
        "long": 133.2680322,
        "lat": -26.1906007
    },
    {
        "postcode": "0872",
        "locality": "DE ROSE HILL",
        "state": "SA",
        "long": 133.3111959,
        "lat": -26.5560969
    },
    {
        "postcode": "0872",
        "locality": "ERNABELLA",
        "state": "SA",
        "long": 131.298809,
        "lat": -21.949513
    },
    {
        "postcode": "0872",
        "locality": "ERNABELLA (PUKATJA)",
        "state": "SA",
        "long": 132.134,
        "lat": -26.2796
    },
    {
        "postcode": "0872",
        "locality": "FREGON",
        "state": "SA",
        "long": 131.298809,
        "lat": -21.949513
    },
    {
        "postcode": "0872",
        "locality": "INDULKANA",
        "state": "SA",
        "long": 131.298809,
        "lat": -21.949513
    },
    {
        "postcode": "0872",
        "locality": "INDULKANA (IWANTJA)",
        "state": "SA",
        "long": 133.308,
        "lat": -26.9661
    },
    {
        "postcode": "0872",
        "locality": "IWANTJA",
        "state": "SA",
        "long": 133.3066861,
        "lat": -26.97805135
    },
    {
        "postcode": "0872",
        "locality": "KALKA",
        "state": "SA",
        "long": 129.1527543,
        "lat": -26.11557751
    },
    {
        "postcode": "0872",
        "locality": "KALTJITI",
        "state": "SA",
        "long": 132.0298903,
        "lat": -26.76713295
    },
    {
        "postcode": "0872",
        "locality": "KANPI",
        "state": "SA",
        "long": 130.1149452,
        "lat": -26.16295046
    },
    {
        "postcode": "0872",
        "locality": "LAMBINA",
        "state": "SA",
        "long": 134.0209294,
        "lat": -26.98843007
    },
    {
        "postcode": "0872",
        "locality": "MIMILI",
        "state": "SA",
        "long": 132.7012923,
        "lat": -27.02392513
    },
    {
        "postcode": "0872",
        "locality": "MURPUTJA",
        "state": "SA",
        "long": 130.1826917,
        "lat": -26.1637425
    },
    {
        "postcode": "0872",
        "locality": "NYAPARI",
        "state": "SA",
        "long": 130.2070878,
        "lat": -26.18249261
    },
    {
        "postcode": "0872",
        "locality": "PIPALYATJARA",
        "state": "SA",
        "long": 129.1456993,
        "lat": -26.17046294
    },
    {
        "postcode": "0872",
        "locality": "PUKATJA",
        "state": "SA",
        "long": 132.138154,
        "lat": -26.29118818
    },
    {
        "postcode": "0872",
        "locality": "TIEYON",
        "state": "SA",
        "long": 133.8900188,
        "lat": -26.34253111
    },
    {
        "postcode": "0872",
        "locality": "UMUWA",
        "state": "SA",
        "long": 132.0252848,
        "lat": -26.47801156
    },
    {
        "postcode": "0872",
        "locality": "WATARRU",
        "state": "SA",
        "long": 129.9052488,
        "lat": -27.02469871
    },
    {
        "postcode": "0872",
        "locality": "WATINUMA",
        "state": "SA",
        "long": 131.8810186,
        "lat": -26.52118731
    },
    {
        "postcode": "0872",
        "locality": "YUNYARINYI",
        "state": "SA",
        "long": 132.4550072,
        "lat": -26.32328109
    },
    {
        "postcode": "5000",
        "locality": "ADELAIDE",
        "state": "SA",
        "long": 138.608637,
        "lat": -34.937459
    },
    {
        "postcode": "5000",
        "locality": "ADELAIDE BC",
        "state": "SA",
        "long": 138.608637,
        "lat": -34.937459
    },
    {
        "postcode": "5000",
        "locality": "CITY WEST CAMPUS",
        "state": "SA",
        "long": 138.608637,
        "lat": -34.937459
    },
    {
        "postcode": "5000",
        "locality": "HALIFAX STREET",
        "state": "SA",
        "long": 138.608637,
        "lat": -34.937459
    },
    {
        "postcode": "5000",
        "locality": "HUTT STREET",
        "state": "SA",
        "long": 138.608637,
        "lat": -34.937459
    },
    {
        "postcode": "5000",
        "locality": "PARLIAMENT HOUSE",
        "state": "SA",
        "long": 138.608637,
        "lat": -34.937459
    },
    {
        "postcode": "5000",
        "locality": "RUNDLE MALL",
        "state": "SA",
        "long": 138.608637,
        "lat": -34.937459
    },
    {
        "postcode": "5000",
        "locality": "STATION ARCADE",
        "state": "SA",
        "long": 138.608637,
        "lat": -34.937459
    },
    {
        "postcode": "5000",
        "locality": "STURT STREET",
        "state": "SA",
        "long": 138.608637,
        "lat": -34.937459
    },
    {
        "postcode": "5001",
        "locality": "ADELAIDE",
        "state": "SA",
        "long": 139.273782,
        "lat": -35.120097
    },
    {
        "postcode": "5005",
        "locality": "ADELAIDE UNIVERSITY",
        "state": "SA",
        "long": 138.60351,
        "lat": -34.919398
    },
    {
        "postcode": "5005",
        "locality": "THE UNIVERSITY OF ADELAIDE",
        "state": "SA",
        "long": 138.60351,
        "lat": -34.919398
    },
    {
        "postcode": "5005",
        "locality": "UNIVERSITY OF ADELAIDE",
        "state": "SA",
        "long": 138.60351,
        "lat": -34.919398
    },
    {
        "postcode": "5006",
        "locality": "NORTH ADELAIDE",
        "state": "SA",
        "long": 138.584497,
        "lat": -34.911523
    },
    {
        "postcode": "5006",
        "locality": "NORTH ADELAIDE MELBOURNE ST",
        "state": "SA",
        "long": 138.584497,
        "lat": -34.911523
    },
    {
        "postcode": "5007",
        "locality": "BOWDEN",
        "state": "SA",
        "long": 138.56787,
        "lat": -34.903259
    },
    {
        "postcode": "5007",
        "locality": "BROMPTON",
        "state": "SA",
        "long": 138.56787,
        "lat": -34.903259
    },
    {
        "postcode": "5007",
        "locality": "HINDMARSH",
        "state": "SA",
        "long": 138.56787,
        "lat": -34.903259
    },
    {
        "postcode": "5007",
        "locality": "WELLAND",
        "state": "SA",
        "long": 138.56787,
        "lat": -34.903259
    },
    {
        "postcode": "5007",
        "locality": "WEST HINDMARSH",
        "state": "SA",
        "long": 138.56787,
        "lat": -34.903259
    },
    {
        "postcode": "5008",
        "locality": "CROYDON",
        "state": "SA",
        "long": 138.559407,
        "lat": -34.887511
    },
    {
        "postcode": "5008",
        "locality": "CROYDON PARK",
        "state": "SA",
        "long": 138.559407,
        "lat": -34.887511
    },
    {
        "postcode": "5008",
        "locality": "CROYDON PARK SOUTH",
        "state": "SA",
        "long": 138.559407,
        "lat": -34.887511
    },
    {
        "postcode": "5008",
        "locality": "DEVON PARK",
        "state": "SA",
        "long": 138.559407,
        "lat": -34.887511
    },
    {
        "postcode": "5008",
        "locality": "DUDLEY PARK",
        "state": "SA",
        "long": 138.559407,
        "lat": -34.887511
    },
    {
        "postcode": "5008",
        "locality": "RENOWN PARK",
        "state": "SA",
        "long": 138.559407,
        "lat": -34.887511
    },
    {
        "postcode": "5008",
        "locality": "RIDLEYTON",
        "state": "SA",
        "long": 138.559407,
        "lat": -34.887511
    },
    {
        "postcode": "5008",
        "locality": "WEST CROYDON",
        "state": "SA",
        "long": 138.559407,
        "lat": -34.887511
    },
    {
        "postcode": "5009",
        "locality": "ALLENBY GARDENS",
        "state": "SA",
        "long": 138.542493,
        "lat": -34.896906
    },
    {
        "postcode": "5009",
        "locality": "BEVERLEY",
        "state": "SA",
        "long": 138.542493,
        "lat": -34.896906
    },
    {
        "postcode": "5009",
        "locality": "KILKENNY",
        "state": "SA",
        "long": 138.542493,
        "lat": -34.896906
    },
    {
        "postcode": "5010",
        "locality": "ANGLE PARK",
        "state": "SA",
        "long": 138.558318,
        "lat": -34.857497
    },
    {
        "postcode": "5010",
        "locality": "FERRYDEN PARK",
        "state": "SA",
        "long": 138.558318,
        "lat": -34.857497
    },
    {
        "postcode": "5010",
        "locality": "REGENCY PARK",
        "state": "SA",
        "long": 138.558318,
        "lat": -34.857497
    },
    {
        "postcode": "5010",
        "locality": "REGENCY PARK BC",
        "state": "SA",
        "long": 138.558318,
        "lat": -34.857497
    },
    {
        "postcode": "5011",
        "locality": "ST CLAIR",
        "state": "SA",
        "long": 138.5353265,
        "lat": -34.87089128
    },
    {
        "postcode": "5011",
        "locality": "ST CLAIRE",
        "state": "SA",
        "long": 138.538261,
        "lat": -34.877605
    },
    {
        "postcode": "5011",
        "locality": "WOODVILLE",
        "state": "SA",
        "long": 138.527677,
        "lat": -34.883282
    },
    {
        "postcode": "5011",
        "locality": "WOODVILLE PARK",
        "state": "SA",
        "long": 138.527677,
        "lat": -34.883282
    },
    {
        "postcode": "5011",
        "locality": "WOODVILLE SOUTH",
        "state": "SA",
        "long": 138.527677,
        "lat": -34.883282
    },
    {
        "postcode": "5011",
        "locality": "WOODVILLE WEST",
        "state": "SA",
        "long": 138.527677,
        "lat": -34.883282
    },
    {
        "postcode": "5012",
        "locality": "ATHOL PARK",
        "state": "SA",
        "long": 138.541637,
        "lat": -34.86303
    },
    {
        "postcode": "5012",
        "locality": "MANSFIELD PARK",
        "state": "SA",
        "long": 138.541637,
        "lat": -34.86303
    },
    {
        "postcode": "5012",
        "locality": "WOODVILLE GARDENS",
        "state": "SA",
        "long": 138.541637,
        "lat": -34.86303
    },
    {
        "postcode": "5012",
        "locality": "WOODVILLE NORTH",
        "state": "SA",
        "long": 138.541637,
        "lat": -34.86303
    },
    {
        "postcode": "5013",
        "locality": "GILLMAN",
        "state": "SA",
        "long": 138.553453,
        "lat": -34.841984
    },
    {
        "postcode": "5013",
        "locality": "OTTOWAY",
        "state": "SA",
        "long": 138.553453,
        "lat": -34.841984
    },
    {
        "postcode": "5013",
        "locality": "PENNINGTON",
        "state": "SA",
        "long": 138.553453,
        "lat": -34.841984
    },
    {
        "postcode": "5013",
        "locality": "ROSEWATER",
        "state": "SA",
        "long": 138.553453,
        "lat": -34.841984
    },
    {
        "postcode": "5013",
        "locality": "ROSEWATER EAST",
        "state": "SA",
        "long": 138.553453,
        "lat": -34.841984
    },
    {
        "postcode": "5013",
        "locality": "WINGFIELD",
        "state": "SA",
        "long": 138.553453,
        "lat": -34.841984
    },
    {
        "postcode": "5014",
        "locality": "ALBERT PARK",
        "state": "SA",
        "long": 138.509247,
        "lat": -34.86475
    },
    {
        "postcode": "5014",
        "locality": "ALBERTON",
        "state": "SA",
        "long": 138.509247,
        "lat": -34.86475
    },
    {
        "postcode": "5014",
        "locality": "CHELTENHAM",
        "state": "SA",
        "long": 138.509247,
        "lat": -34.86475
    },
    {
        "postcode": "5014",
        "locality": "HENDON",
        "state": "SA",
        "long": 138.509247,
        "lat": -34.86475
    },
    {
        "postcode": "5014",
        "locality": "QUEENSTOWN",
        "state": "SA",
        "long": 138.509247,
        "lat": -34.86475
    },
    {
        "postcode": "5014",
        "locality": "ROYAL PARK",
        "state": "SA",
        "long": 138.509247,
        "lat": -34.86475
    },
    {
        "postcode": "5015",
        "locality": "BIRKENHEAD",
        "state": "SA",
        "long": 138.531567,
        "lat": -34.808422
    },
    {
        "postcode": "5015",
        "locality": "ETHELTON",
        "state": "SA",
        "long": 138.531567,
        "lat": -34.808422
    },
    {
        "postcode": "5015",
        "locality": "GARDEN ISLAND",
        "state": "SA",
        "long": 138.496803,
        "lat": -34.840209
    },
    {
        "postcode": "5015",
        "locality": "GLANVILLE",
        "state": "SA",
        "long": 138.531567,
        "lat": -34.808422
    },
    {
        "postcode": "5015",
        "locality": "NEW PORT",
        "state": "SA",
        "long": 138.499714,
        "lat": -34.84099502
    },
    {
        "postcode": "5015",
        "locality": "PORT ADELAIDE",
        "state": "SA",
        "long": 138.531567,
        "lat": -34.808422
    },
    {
        "postcode": "5015",
        "locality": "PORT ADELAIDE BC",
        "state": "SA",
        "long": 138.531567,
        "lat": -34.808422
    },
    {
        "postcode": "5015",
        "locality": "PORT ADELAIDE DC",
        "state": "SA",
        "long": 138.531567,
        "lat": -34.808422
    },
    {
        "postcode": "5015",
        "locality": "TORRENS ISLAND",
        "state": "SA",
        "long": 138.496803,
        "lat": -34.840209
    },
    {
        "postcode": "5016",
        "locality": "LARGS BAY",
        "state": "SA",
        "long": 138.493796,
        "lat": -34.824516
    },
    {
        "postcode": "5016",
        "locality": "LARGS NORTH",
        "state": "SA",
        "long": 138.493796,
        "lat": -34.824516
    },
    {
        "postcode": "5016",
        "locality": "PETERHEAD",
        "state": "SA",
        "long": 138.493796,
        "lat": -34.824516
    },
    {
        "postcode": "5017",
        "locality": "OSBORNE",
        "state": "SA",
        "long": 138.498128,
        "lat": -34.806494
    },
    {
        "postcode": "5017",
        "locality": "TAPEROO",
        "state": "SA",
        "long": 138.498128,
        "lat": -34.806494
    },
    {
        "postcode": "5018",
        "locality": "NORTH HAVEN",
        "state": "SA",
        "long": 138.49958,
        "lat": -34.779057
    },
    {
        "postcode": "5018",
        "locality": "OUTER HARBOR",
        "state": "SA",
        "long": 138.49958,
        "lat": -34.779057
    },
    {
        "postcode": "5019",
        "locality": "EXETER",
        "state": "SA",
        "long": 138.477054,
        "lat": -34.847707
    },
    {
        "postcode": "5019",
        "locality": "SEMAPHORE",
        "state": "SA",
        "long": 138.477054,
        "lat": -34.847707
    },
    {
        "postcode": "5019",
        "locality": "SEMAPHORE PARK",
        "state": "SA",
        "long": 138.477054,
        "lat": -34.847707
    },
    {
        "postcode": "5019",
        "locality": "SEMAPHORE SOUTH",
        "state": "SA",
        "long": 138.477054,
        "lat": -34.847707
    },
    {
        "postcode": "5020",
        "locality": "WEST LAKES SHORE",
        "state": "SA",
        "long": 138.481639,
        "lat": -34.867318
    },
    {
        "postcode": "5021",
        "locality": "WEST LAKES",
        "state": "SA",
        "long": 138.492908,
        "lat": -34.86628
    },
    {
        "postcode": "5022",
        "locality": "GRANGE",
        "state": "SA",
        "long": 138.49264,
        "lat": -34.905461
    },
    {
        "postcode": "5022",
        "locality": "HENLEY BEACH",
        "state": "SA",
        "long": 138.49264,
        "lat": -34.905461
    },
    {
        "postcode": "5022",
        "locality": "HENLEY BEACH SOUTH",
        "state": "SA",
        "long": 138.49264,
        "lat": -34.905461
    },
    {
        "postcode": "5022",
        "locality": "KIRKCALDY",
        "state": "SA",
        "long": 138.49264,
        "lat": -34.905461
    },
    {
        "postcode": "5022",
        "locality": "TENNYSON",
        "state": "SA",
        "long": 138.49264,
        "lat": -34.905461
    },
    {
        "postcode": "5023",
        "locality": "FINDON",
        "state": "SA",
        "long": 138.51199,
        "lat": -34.90073
    },
    {
        "postcode": "5023",
        "locality": "SEATON",
        "state": "SA",
        "long": 138.51199,
        "lat": -34.90073
    },
    {
        "postcode": "5023",
        "locality": "SEATON NORTH",
        "state": "SA",
        "long": 138.51199,
        "lat": -34.90073
    },
    {
        "postcode": "5024",
        "locality": "FULHAM",
        "state": "SA",
        "long": 138.506052,
        "lat": -34.948827
    },
    {
        "postcode": "5024",
        "locality": "FULHAM GARDENS",
        "state": "SA",
        "long": 138.506052,
        "lat": -34.948827
    },
    {
        "postcode": "5024",
        "locality": "WEST BEACH",
        "state": "SA",
        "long": 138.506052,
        "lat": -34.948827
    },
    {
        "postcode": "5025",
        "locality": "FLINDERS PARK",
        "state": "SA",
        "long": 138.529573,
        "lat": -34.912384
    },
    {
        "postcode": "5025",
        "locality": "KIDMAN PARK",
        "state": "SA",
        "long": 138.529573,
        "lat": -34.912384
    },
    {
        "postcode": "5031",
        "locality": "MILE END",
        "state": "SA",
        "long": 138.570873,
        "lat": -34.936926
    },
    {
        "postcode": "5031",
        "locality": "MILE END SOUTH",
        "state": "SA",
        "long": 138.570873,
        "lat": -34.936926
    },
    {
        "postcode": "5031",
        "locality": "THEBARTON",
        "state": "SA",
        "long": 138.570873,
        "lat": -34.936926
    },
    {
        "postcode": "5031",
        "locality": "TORRENSVILLE",
        "state": "SA",
        "long": 138.570873,
        "lat": -34.936926
    },
    {
        "postcode": "5031",
        "locality": "TORRENSVILLE PLAZA",
        "state": "SA",
        "long": 138.570873,
        "lat": -34.936926
    },
    {
        "postcode": "5032",
        "locality": "BROOKLYN PARK",
        "state": "SA",
        "long": 138.544358,
        "lat": -34.935734
    },
    {
        "postcode": "5032",
        "locality": "LOCKLEYS",
        "state": "SA",
        "long": 138.544358,
        "lat": -34.935734
    },
    {
        "postcode": "5032",
        "locality": "UNDERDALE",
        "state": "SA",
        "long": 138.544358,
        "lat": -34.935734
    },
    {
        "postcode": "5033",
        "locality": "COWANDILLA",
        "state": "SA",
        "long": 138.558451,
        "lat": -34.938858
    },
    {
        "postcode": "5033",
        "locality": "HILTON",
        "state": "SA",
        "long": 138.558451,
        "lat": -34.938858
    },
    {
        "postcode": "5033",
        "locality": "HILTON PLAZA",
        "state": "SA",
        "long": 138.558451,
        "lat": -34.938858
    },
    {
        "postcode": "5033",
        "locality": "MARLESTON",
        "state": "SA",
        "long": 138.558451,
        "lat": -34.938858
    },
    {
        "postcode": "5033",
        "locality": "MARLESTON DC",
        "state": "SA",
        "long": 138.558451,
        "lat": -34.938858
    },
    {
        "postcode": "5033",
        "locality": "RICHMOND",
        "state": "SA",
        "long": 138.558451,
        "lat": -34.938858
    },
    {
        "postcode": "5033",
        "locality": "WEST RICHMOND",
        "state": "SA",
        "long": 138.558451,
        "lat": -34.938858
    },
    {
        "postcode": "5034",
        "locality": "CLARENCE PARK",
        "state": "SA",
        "long": 138.58811,
        "lat": -34.956227
    },
    {
        "postcode": "5034",
        "locality": "GOODWOOD",
        "state": "SA",
        "long": 138.58811,
        "lat": -34.956227
    },
    {
        "postcode": "5034",
        "locality": "KINGS PARK",
        "state": "SA",
        "long": 138.58811,
        "lat": -34.956227
    },
    {
        "postcode": "5034",
        "locality": "MILLSWOOD",
        "state": "SA",
        "long": 138.58811,
        "lat": -34.956227
    },
    {
        "postcode": "5034",
        "locality": "WAYVILLE",
        "state": "SA",
        "long": 138.58811,
        "lat": -34.956227
    },
    {
        "postcode": "5035",
        "locality": "ASHFORD",
        "state": "SA",
        "long": 138.575187,
        "lat": -34.952075
    },
    {
        "postcode": "5035",
        "locality": "BLACK FOREST",
        "state": "SA",
        "long": 138.575187,
        "lat": -34.952075
    },
    {
        "postcode": "5035",
        "locality": "EVERARD PARK",
        "state": "SA",
        "long": 138.575187,
        "lat": -34.952075
    },
    {
        "postcode": "5035",
        "locality": "FORESTVILLE",
        "state": "SA",
        "long": 138.575187,
        "lat": -34.952075
    },
    {
        "postcode": "5035",
        "locality": "KESWICK",
        "state": "SA",
        "long": 138.575187,
        "lat": -34.952075
    },
    {
        "postcode": "5035",
        "locality": "KESWICK TERMINAL",
        "state": "SA",
        "long": 138.575187,
        "lat": -34.952075
    },
    {
        "postcode": "5037",
        "locality": "GLANDORE",
        "state": "SA",
        "long": 138.545826,
        "lat": -34.957399
    },
    {
        "postcode": "5037",
        "locality": "KURRALTA PARK",
        "state": "SA",
        "long": 138.545826,
        "lat": -34.957399
    },
    {
        "postcode": "5037",
        "locality": "NETLEY",
        "state": "SA",
        "long": 138.545826,
        "lat": -34.957399
    },
    {
        "postcode": "5037",
        "locality": "NORTH PLYMPTON",
        "state": "SA",
        "long": 138.545826,
        "lat": -34.957399
    },
    {
        "postcode": "5038",
        "locality": "CAMDEN PARK",
        "state": "SA",
        "long": 138.548367,
        "lat": -34.968051
    },
    {
        "postcode": "5038",
        "locality": "PLYMPTON",
        "state": "SA",
        "long": 138.548367,
        "lat": -34.968051
    },
    {
        "postcode": "5038",
        "locality": "PLYMPTON PARK",
        "state": "SA",
        "long": 138.548367,
        "lat": -34.968051
    },
    {
        "postcode": "5038",
        "locality": "SOUTH PLYMPTON",
        "state": "SA",
        "long": 138.548367,
        "lat": -34.968051
    },
    {
        "postcode": "5039",
        "locality": "CLARENCE GARDENS",
        "state": "SA",
        "long": 138.570739,
        "lat": -34.976263
    },
    {
        "postcode": "5039",
        "locality": "EDWARDSTOWN",
        "state": "SA",
        "long": 138.570739,
        "lat": -34.976263
    },
    {
        "postcode": "5039",
        "locality": "MELROSE PARK",
        "state": "SA",
        "long": 138.570739,
        "lat": -34.976263
    },
    {
        "postcode": "5039",
        "locality": "MELROSE PARK DC",
        "state": "SA",
        "long": 138.570739,
        "lat": -34.976263
    },
    {
        "postcode": "5040",
        "locality": "NOVAR GARDENS",
        "state": "SA",
        "long": 138.527412,
        "lat": -34.963083
    },
    {
        "postcode": "5041",
        "locality": "COLONEL LIGHT GARDENS",
        "state": "SA",
        "long": 138.594176,
        "lat": -35.00298
    },
    {
        "postcode": "5041",
        "locality": "CUMBERLAND PARK",
        "state": "SA",
        "long": 138.594176,
        "lat": -35.00298
    },
    {
        "postcode": "5041",
        "locality": "DAW PARK",
        "state": "SA",
        "long": 138.594176,
        "lat": -35.00298
    },
    {
        "postcode": "5041",
        "locality": "PANORAMA",
        "state": "SA",
        "long": 138.594176,
        "lat": -35.00298
    },
    {
        "postcode": "5041",
        "locality": "WESTBOURNE PARK",
        "state": "SA",
        "long": 138.594176,
        "lat": -35.00298
    },
    {
        "postcode": "5042",
        "locality": "BEDFORD PARK",
        "state": "SA",
        "long": 138.575023,
        "lat": -35.007341
    },
    {
        "postcode": "5042",
        "locality": "CLOVELLY PARK",
        "state": "SA",
        "long": 138.575023,
        "lat": -35.007341
    },
    {
        "postcode": "5042",
        "locality": "FLINDERS UNIVERSITY",
        "state": "SA",
        "long": 138.575023,
        "lat": -35.007341
    },
    {
        "postcode": "5042",
        "locality": "PASADENA",
        "state": "SA",
        "long": 138.575023,
        "lat": -35.007341
    },
    {
        "postcode": "5042",
        "locality": "ST MARYS",
        "state": "SA",
        "long": 138.575023,
        "lat": -35.007341
    },
    {
        "postcode": "5042",
        "locality": "TONSLEY",
        "state": "SA",
        "long": 138.5709927,
        "lat": -35.00971638
    },
    {
        "postcode": "5043",
        "locality": "ASCOT PARK",
        "state": "SA",
        "long": 138.553853,
        "lat": -35.005492
    },
    {
        "postcode": "5043",
        "locality": "MARION",
        "state": "SA",
        "long": 138.553853,
        "lat": -35.005492
    },
    {
        "postcode": "5043",
        "locality": "MITCHELL PARK",
        "state": "SA",
        "long": 138.553853,
        "lat": -35.005492
    },
    {
        "postcode": "5043",
        "locality": "MORPHETTVILLE",
        "state": "SA",
        "long": 138.553853,
        "lat": -35.005492
    },
    {
        "postcode": "5043",
        "locality": "PARK HOLME",
        "state": "SA",
        "long": 138.553853,
        "lat": -35.005492
    },
    {
        "postcode": "5044",
        "locality": "GLENGOWRIE",
        "state": "SA",
        "long": 138.516314,
        "lat": -35.001213
    },
    {
        "postcode": "5044",
        "locality": "SOMERTON PARK",
        "state": "SA",
        "long": 138.516314,
        "lat": -35.001213
    },
    {
        "postcode": "5045",
        "locality": "GLENELG",
        "state": "SA",
        "long": 138.516973,
        "lat": -34.977122
    },
    {
        "postcode": "5045",
        "locality": "GLENELG EAST",
        "state": "SA",
        "long": 138.516973,
        "lat": -34.977122
    },
    {
        "postcode": "5045",
        "locality": "GLENELG JETTY ROAD",
        "state": "SA",
        "long": 138.516973,
        "lat": -34.977122
    },
    {
        "postcode": "5045",
        "locality": "GLENELG NORTH",
        "state": "SA",
        "long": 138.516973,
        "lat": -34.977122
    },
    {
        "postcode": "5045",
        "locality": "GLENELG SOUTH",
        "state": "SA",
        "long": 138.516973,
        "lat": -34.977122
    },
    {
        "postcode": "5046",
        "locality": "OAKLANDS PARK",
        "state": "SA",
        "long": 138.535434,
        "lat": -35.003794
    },
    {
        "postcode": "5046",
        "locality": "WARRADALE",
        "state": "SA",
        "long": 138.535434,
        "lat": -35.003794
    },
    {
        "postcode": "5046",
        "locality": "WARRADALE NORTH",
        "state": "SA",
        "long": 138.535434,
        "lat": -35.003794
    },
    {
        "postcode": "5047",
        "locality": "DARLINGTON",
        "state": "SA",
        "long": 138.546572,
        "lat": -35.030702
    },
    {
        "postcode": "5047",
        "locality": "SEACOMBE GARDENS",
        "state": "SA",
        "long": 138.546572,
        "lat": -35.030702
    },
    {
        "postcode": "5047",
        "locality": "SEACOMBE HEIGHTS",
        "state": "SA",
        "long": 138.546572,
        "lat": -35.030702
    },
    {
        "postcode": "5047",
        "locality": "STURT",
        "state": "SA",
        "long": 138.546572,
        "lat": -35.030702
    },
    {
        "postcode": "5048",
        "locality": "BRIGHTON",
        "state": "SA",
        "long": 138.520459,
        "lat": -35.017416
    },
    {
        "postcode": "5048",
        "locality": "DOVER GARDENS",
        "state": "SA",
        "long": 138.520459,
        "lat": -35.017416
    },
    {
        "postcode": "5048",
        "locality": "HOVE",
        "state": "SA",
        "long": 138.520459,
        "lat": -35.017416
    },
    {
        "postcode": "5048",
        "locality": "NORTH BRIGHTON",
        "state": "SA",
        "long": 138.520459,
        "lat": -35.017416
    },
    {
        "postcode": "5048",
        "locality": "SOUTH BRIGHTON",
        "state": "SA",
        "long": 138.520459,
        "lat": -35.017416
    },
    {
        "postcode": "5049",
        "locality": "KINGSTON PARK",
        "state": "SA",
        "long": 138.52272,
        "lat": -35.045389
    },
    {
        "postcode": "5049",
        "locality": "MARINO",
        "state": "SA",
        "long": 138.52272,
        "lat": -35.045389
    },
    {
        "postcode": "5049",
        "locality": "SEACLIFF",
        "state": "SA",
        "long": 138.52272,
        "lat": -35.045389
    },
    {
        "postcode": "5049",
        "locality": "SEACLIFF PARK",
        "state": "SA",
        "long": 138.52272,
        "lat": -35.045389
    },
    {
        "postcode": "5049",
        "locality": "SEAVIEW DOWNS",
        "state": "SA",
        "long": 138.52272,
        "lat": -35.045389
    },
    {
        "postcode": "5050",
        "locality": "BELLEVUE HEIGHTS",
        "state": "SA",
        "long": 138.601272,
        "lat": -35.026307
    },
    {
        "postcode": "5050",
        "locality": "EDEN HILLS",
        "state": "SA",
        "long": 138.601272,
        "lat": -35.026307
    },
    {
        "postcode": "5051",
        "locality": "BLACKWOOD",
        "state": "SA",
        "long": 138.620405,
        "lat": -35.033769
    },
    {
        "postcode": "5051",
        "locality": "COROMANDEL VALLEY",
        "state": "SA",
        "long": 138.620405,
        "lat": -35.033769
    },
    {
        "postcode": "5051",
        "locality": "CRAIGBURN FARM",
        "state": "SA",
        "long": 138.620405,
        "lat": -35.033769
    },
    {
        "postcode": "5051",
        "locality": "HAWTHORNDENE",
        "state": "SA",
        "long": 138.620405,
        "lat": -35.033769
    },
    {
        "postcode": "5052",
        "locality": "BELAIR",
        "state": "SA",
        "long": 138.618684,
        "lat": -35.003888
    },
    {
        "postcode": "5052",
        "locality": "GLENALTA",
        "state": "SA",
        "long": 138.618684,
        "lat": -35.003888
    },
    {
        "postcode": "5061",
        "locality": "HYDE PARK",
        "state": "SA",
        "long": 138.60648,
        "lat": -34.957195
    },
    {
        "postcode": "5061",
        "locality": "MALVERN",
        "state": "SA",
        "long": 138.60648,
        "lat": -34.957195
    },
    {
        "postcode": "5061",
        "locality": "UNLEY",
        "state": "SA",
        "long": 138.60648,
        "lat": -34.957195
    },
    {
        "postcode": "5061",
        "locality": "UNLEY BC",
        "state": "SA",
        "long": 138.60648,
        "lat": -34.957195
    },
    {
        "postcode": "5061",
        "locality": "UNLEY DC",
        "state": "SA",
        "long": 138.60648,
        "lat": -34.957195
    },
    {
        "postcode": "5061",
        "locality": "UNLEY PARK",
        "state": "SA",
        "long": 138.60648,
        "lat": -34.957195
    },
    {
        "postcode": "5062",
        "locality": "BROWN HILL CREEK",
        "state": "SA",
        "long": 138.602387,
        "lat": -35.004063
    },
    {
        "postcode": "5062",
        "locality": "CLAPHAM",
        "state": "SA",
        "long": 138.602387,
        "lat": -35.004063
    },
    {
        "postcode": "5062",
        "locality": "HAWTHORN",
        "state": "SA",
        "long": 138.602387,
        "lat": -35.004063
    },
    {
        "postcode": "5062",
        "locality": "KINGSWOOD",
        "state": "SA",
        "long": 138.602387,
        "lat": -35.004063
    },
    {
        "postcode": "5062",
        "locality": "LOWER MITCHAM",
        "state": "SA",
        "long": 138.602387,
        "lat": -35.004063
    },
    {
        "postcode": "5062",
        "locality": "LYNTON",
        "state": "SA",
        "long": 138.602387,
        "lat": -35.004063
    },
    {
        "postcode": "5062",
        "locality": "MITCHAM",
        "state": "SA",
        "long": 138.602387,
        "lat": -35.004063
    },
    {
        "postcode": "5062",
        "locality": "MITCHAM SHOPPING CENTRE",
        "state": "SA",
        "long": 138.602387,
        "lat": -35.004063
    },
    {
        "postcode": "5062",
        "locality": "NETHERBY",
        "state": "SA",
        "long": 138.602387,
        "lat": -35.004063
    },
    {
        "postcode": "5062",
        "locality": "SPRINGFIELD",
        "state": "SA",
        "long": 138.602387,
        "lat": -35.004063
    },
    {
        "postcode": "5062",
        "locality": "TORRENS PARK",
        "state": "SA",
        "long": 138.602387,
        "lat": -35.004063
    },
    {
        "postcode": "5063",
        "locality": "EASTWOOD",
        "state": "SA",
        "long": 138.621477,
        "lat": -34.954325
    },
    {
        "postcode": "5063",
        "locality": "FREWVILLE",
        "state": "SA",
        "long": 138.621477,
        "lat": -34.954325
    },
    {
        "postcode": "5063",
        "locality": "FULLARTON",
        "state": "SA",
        "long": 138.621477,
        "lat": -34.954325
    },
    {
        "postcode": "5063",
        "locality": "HIGHGATE",
        "state": "SA",
        "long": 138.621477,
        "lat": -34.954325
    },
    {
        "postcode": "5063",
        "locality": "PARKSIDE",
        "state": "SA",
        "long": 138.621477,
        "lat": -34.954325
    },
    {
        "postcode": "5064",
        "locality": "GLEN OSMOND",
        "state": "SA",
        "long": 138.649183,
        "lat": -34.963195
    },
    {
        "postcode": "5064",
        "locality": "GLENUNGA",
        "state": "SA",
        "long": 138.649183,
        "lat": -34.963195
    },
    {
        "postcode": "5064",
        "locality": "MOUNT OSMOND",
        "state": "SA",
        "long": 138.649183,
        "lat": -34.963195
    },
    {
        "postcode": "5064",
        "locality": "MYRTLE BANK",
        "state": "SA",
        "long": 138.649183,
        "lat": -34.963195
    },
    {
        "postcode": "5064",
        "locality": "ST GEORGES",
        "state": "SA",
        "long": 138.649183,
        "lat": -34.963195
    },
    {
        "postcode": "5064",
        "locality": "URRBRAE",
        "state": "SA",
        "long": 138.649183,
        "lat": -34.963195
    },
    {
        "postcode": "5065",
        "locality": "DULWICH",
        "state": "SA",
        "long": 138.633974,
        "lat": -34.940362
    },
    {
        "postcode": "5065",
        "locality": "GLENSIDE",
        "state": "SA",
        "long": 138.633974,
        "lat": -34.940362
    },
    {
        "postcode": "5065",
        "locality": "LINDEN PARK",
        "state": "SA",
        "long": 138.633974,
        "lat": -34.940362
    },
    {
        "postcode": "5065",
        "locality": "TOORAK GARDENS",
        "state": "SA",
        "long": 138.633974,
        "lat": -34.940362
    },
    {
        "postcode": "5065",
        "locality": "TUSMORE",
        "state": "SA",
        "long": 138.633974,
        "lat": -34.940362
    },
    {
        "postcode": "5066",
        "locality": "BEAUMONT",
        "state": "SA",
        "long": 138.66029,
        "lat": -34.940962
    },
    {
        "postcode": "5066",
        "locality": "BURNSIDE",
        "state": "SA",
        "long": 138.66029,
        "lat": -34.940962
    },
    {
        "postcode": "5066",
        "locality": "ERINDALE",
        "state": "SA",
        "long": 138.66029,
        "lat": -34.940962
    },
    {
        "postcode": "5066",
        "locality": "HAZELWOOD PARK",
        "state": "SA",
        "long": 138.66029,
        "lat": -34.940962
    },
    {
        "postcode": "5066",
        "locality": "STONYFELL",
        "state": "SA",
        "long": 138.66029,
        "lat": -34.940962
    },
    {
        "postcode": "5066",
        "locality": "WATERFALL GULLY",
        "state": "SA",
        "long": 138.66029,
        "lat": -34.940962
    },
    {
        "postcode": "5066",
        "locality": "WATTLE PARK",
        "state": "SA",
        "long": 138.66029,
        "lat": -34.940962
    },
    {
        "postcode": "5067",
        "locality": "BEULAH PARK",
        "state": "SA",
        "long": 138.630575,
        "lat": -34.919985
    },
    {
        "postcode": "5067",
        "locality": "KENT TOWN",
        "state": "SA",
        "long": 138.630575,
        "lat": -34.919985
    },
    {
        "postcode": "5067",
        "locality": "NORWOOD",
        "state": "SA",
        "long": 138.630575,
        "lat": -34.919985
    },
    {
        "postcode": "5067",
        "locality": "NORWOOD SOUTH",
        "state": "SA",
        "long": 138.630575,
        "lat": -34.919985
    },
    {
        "postcode": "5067",
        "locality": "ROSE PARK",
        "state": "SA",
        "long": 138.630575,
        "lat": -34.919985
    },
    {
        "postcode": "5068",
        "locality": "HEATHPOOL",
        "state": "SA",
        "long": 138.654999,
        "lat": -34.922605
    },
    {
        "postcode": "5068",
        "locality": "KENSINGTON",
        "state": "SA",
        "long": 138.654999,
        "lat": -34.922605
    },
    {
        "postcode": "5068",
        "locality": "KENSINGTON GARDENS",
        "state": "SA",
        "long": 138.654999,
        "lat": -34.922605
    },
    {
        "postcode": "5068",
        "locality": "KENSINGTON PARK",
        "state": "SA",
        "long": 138.654999,
        "lat": -34.922605
    },
    {
        "postcode": "5068",
        "locality": "LEABROOK",
        "state": "SA",
        "long": 138.654999,
        "lat": -34.922605
    },
    {
        "postcode": "5068",
        "locality": "MARRYATVILLE",
        "state": "SA",
        "long": 138.654999,
        "lat": -34.922605
    },
    {
        "postcode": "5068",
        "locality": "ST MORRIS",
        "state": "SA",
        "long": 138.654999,
        "lat": -34.922605
    },
    {
        "postcode": "5068",
        "locality": "TRINITY GARDENS",
        "state": "SA",
        "long": 138.654999,
        "lat": -34.922605
    },
    {
        "postcode": "5069",
        "locality": "COLLEGE PARK",
        "state": "SA",
        "long": 138.623527,
        "lat": -34.907597
    },
    {
        "postcode": "5069",
        "locality": "EVANDALE",
        "state": "SA",
        "long": 138.623527,
        "lat": -34.907597
    },
    {
        "postcode": "5069",
        "locality": "HACKNEY",
        "state": "SA",
        "long": 138.623527,
        "lat": -34.907597
    },
    {
        "postcode": "5069",
        "locality": "MAYLANDS",
        "state": "SA",
        "long": 138.623527,
        "lat": -34.907597
    },
    {
        "postcode": "5069",
        "locality": "ST PETERS",
        "state": "SA",
        "long": 138.623527,
        "lat": -34.907597
    },
    {
        "postcode": "5069",
        "locality": "STEPNEY",
        "state": "SA",
        "long": 138.623527,
        "lat": -34.907597
    },
    {
        "postcode": "5070",
        "locality": "FELIXSTOW",
        "state": "SA",
        "long": 138.642172,
        "lat": -34.900496
    },
    {
        "postcode": "5070",
        "locality": "FIRLE",
        "state": "SA",
        "long": 138.642172,
        "lat": -34.900496
    },
    {
        "postcode": "5070",
        "locality": "GLYNDE",
        "state": "SA",
        "long": 138.642172,
        "lat": -34.900496
    },
    {
        "postcode": "5070",
        "locality": "GLYNDE DC",
        "state": "SA",
        "long": 138.642172,
        "lat": -34.900496
    },
    {
        "postcode": "5070",
        "locality": "GLYNDE PLAZA",
        "state": "SA",
        "long": 138.642172,
        "lat": -34.900496
    },
    {
        "postcode": "5070",
        "locality": "JOSLIN",
        "state": "SA",
        "long": 138.642172,
        "lat": -34.900496
    },
    {
        "postcode": "5070",
        "locality": "MARDEN",
        "state": "SA",
        "long": 138.642172,
        "lat": -34.900496
    },
    {
        "postcode": "5070",
        "locality": "PAYNEHAM",
        "state": "SA",
        "long": 138.642172,
        "lat": -34.900496
    },
    {
        "postcode": "5070",
        "locality": "PAYNEHAM SOUTH",
        "state": "SA",
        "long": 138.642172,
        "lat": -34.900496
    },
    {
        "postcode": "5070",
        "locality": "ROYSTON PARK",
        "state": "SA",
        "long": 138.642172,
        "lat": -34.900496
    },
    {
        "postcode": "5071",
        "locality": "KENT TOWN",
        "state": "SA",
        "long": 138.623005,
        "lat": -34.922911
    },
    {
        "postcode": "5071",
        "locality": "KENT TOWN DC",
        "state": "SA",
        "long": 138.623005,
        "lat": -34.922911
    },
    {
        "postcode": "5072",
        "locality": "AULDANA",
        "state": "SA",
        "long": 138.696113,
        "lat": -34.912078
    },
    {
        "postcode": "5072",
        "locality": "MAGILL",
        "state": "SA",
        "long": 138.696113,
        "lat": -34.912078
    },
    {
        "postcode": "5072",
        "locality": "MAGILL NORTH",
        "state": "SA",
        "long": 138.696113,
        "lat": -34.912078
    },
    {
        "postcode": "5072",
        "locality": "MAGILL SOUTH",
        "state": "SA",
        "long": 138.696113,
        "lat": -34.912078
    },
    {
        "postcode": "5072",
        "locality": "ROSSLYN PARK",
        "state": "SA",
        "long": 138.696113,
        "lat": -34.912078
    },
    {
        "postcode": "5072",
        "locality": "SKYE",
        "state": "SA",
        "long": 138.696113,
        "lat": -34.912078
    },
    {
        "postcode": "5072",
        "locality": "TERINGIE",
        "state": "SA",
        "long": 138.696113,
        "lat": -34.912078
    },
    {
        "postcode": "5072",
        "locality": "WOODFORDE",
        "state": "SA",
        "long": 138.696113,
        "lat": -34.912078
    },
    {
        "postcode": "5073",
        "locality": "HECTORVILLE",
        "state": "SA",
        "long": 138.683151,
        "lat": -34.89528
    },
    {
        "postcode": "5073",
        "locality": "ROSTREVOR",
        "state": "SA",
        "long": 138.683151,
        "lat": -34.89528
    },
    {
        "postcode": "5073",
        "locality": "TRANMERE",
        "state": "SA",
        "long": 138.683151,
        "lat": -34.89528
    },
    {
        "postcode": "5073",
        "locality": "TRANMERE NORTH",
        "state": "SA",
        "long": 138.683151,
        "lat": -34.89528
    },
    {
        "postcode": "5074",
        "locality": "CAMPBELLTOWN",
        "state": "SA",
        "long": 138.669275,
        "lat": -34.884233
    },
    {
        "postcode": "5074",
        "locality": "NEWTON",
        "state": "SA",
        "long": 138.669275,
        "lat": -34.884233
    },
    {
        "postcode": "5075",
        "locality": "DERNANCOURT",
        "state": "SA",
        "long": 138.675254,
        "lat": -34.861332
    },
    {
        "postcode": "5075",
        "locality": "PARADISE",
        "state": "SA",
        "long": 138.675254,
        "lat": -34.861332
    },
    {
        "postcode": "5076",
        "locality": "ATHELSTONE",
        "state": "SA",
        "long": 138.703683,
        "lat": -34.873844
    },
    {
        "postcode": "5076",
        "locality": "CASTAMBUL",
        "state": "SA",
        "long": 138.703683,
        "lat": -34.873844
    },
    {
        "postcode": "5081",
        "locality": "COLLINSWOOD",
        "state": "SA",
        "long": 138.617673,
        "lat": -34.891417
    },
    {
        "postcode": "5081",
        "locality": "GILBERTON",
        "state": "SA",
        "long": 138.617673,
        "lat": -34.891417
    },
    {
        "postcode": "5081",
        "locality": "MEDINDIE",
        "state": "SA",
        "long": 138.617673,
        "lat": -34.891417
    },
    {
        "postcode": "5081",
        "locality": "MEDINDIE GARDENS",
        "state": "SA",
        "long": 138.617673,
        "lat": -34.891417
    },
    {
        "postcode": "5081",
        "locality": "VALE PARK",
        "state": "SA",
        "long": 138.617673,
        "lat": -34.891417
    },
    {
        "postcode": "5081",
        "locality": "WALKERVILLE",
        "state": "SA",
        "long": 138.617673,
        "lat": -34.891417
    },
    {
        "postcode": "5082",
        "locality": "FITZROY",
        "state": "SA",
        "long": 138.587083,
        "lat": -34.886018
    },
    {
        "postcode": "5082",
        "locality": "OVINGHAM",
        "state": "SA",
        "long": 138.587083,
        "lat": -34.886018
    },
    {
        "postcode": "5082",
        "locality": "PROSPECT",
        "state": "SA",
        "long": 138.587083,
        "lat": -34.886018
    },
    {
        "postcode": "5082",
        "locality": "PROSPECT EAST",
        "state": "SA",
        "long": 138.587083,
        "lat": -34.886018
    },
    {
        "postcode": "5082",
        "locality": "PROSPECT WEST",
        "state": "SA",
        "long": 138.587083,
        "lat": -34.886018
    },
    {
        "postcode": "5082",
        "locality": "THORNGATE",
        "state": "SA",
        "long": 138.587083,
        "lat": -34.886018
    },
    {
        "postcode": "5083",
        "locality": "BROADVIEW",
        "state": "SA",
        "long": 138.609927,
        "lat": -34.879357
    },
    {
        "postcode": "5083",
        "locality": "NAILSWORTH",
        "state": "SA",
        "long": 138.609927,
        "lat": -34.879357
    },
    {
        "postcode": "5083",
        "locality": "SEFTON PARK",
        "state": "SA",
        "long": 138.609927,
        "lat": -34.879357
    },
    {
        "postcode": "5084",
        "locality": "BLAIR ATHOL",
        "state": "SA",
        "long": 138.581605,
        "lat": -34.864409
    },
    {
        "postcode": "5084",
        "locality": "BLAIR ATHOL WEST",
        "state": "SA",
        "long": 138.581605,
        "lat": -34.864409
    },
    {
        "postcode": "5084",
        "locality": "KILBURN",
        "state": "SA",
        "long": 138.581605,
        "lat": -34.864409
    },
    {
        "postcode": "5084",
        "locality": "KILBURN NORTH",
        "state": "SA",
        "long": 138.581605,
        "lat": -34.864409
    },
    {
        "postcode": "5085",
        "locality": "CLEARVIEW",
        "state": "SA",
        "long": 138.612959,
        "lat": -34.856239
    },
    {
        "postcode": "5085",
        "locality": "ENFIELD",
        "state": "SA",
        "long": 138.612959,
        "lat": -34.856239
    },
    {
        "postcode": "5085",
        "locality": "ENFIELD PLAZA",
        "state": "SA",
        "long": 138.612959,
        "lat": -34.856239
    },
    {
        "postcode": "5085",
        "locality": "LIGHTSVIEW",
        "state": "SA",
        "long": 138.6273208,
        "lat": -34.86195429
    },
    {
        "postcode": "5085",
        "locality": "NORTHFIELD",
        "state": "SA",
        "long": 138.612959,
        "lat": -34.856239
    },
    {
        "postcode": "5085",
        "locality": "NORTHGATE",
        "state": "SA",
        "long": 138.612959,
        "lat": -34.856239
    },
    {
        "postcode": "5086",
        "locality": "GILLES PLAINS",
        "state": "SA",
        "long": 138.64344,
        "lat": -34.854247
    },
    {
        "postcode": "5086",
        "locality": "GREENACRES",
        "state": "SA",
        "long": 138.64344,
        "lat": -34.854247
    },
    {
        "postcode": "5086",
        "locality": "HAMPSTEAD GARDENS",
        "state": "SA",
        "long": 138.64344,
        "lat": -34.854247
    },
    {
        "postcode": "5086",
        "locality": "HILLCREST",
        "state": "SA",
        "long": 138.64344,
        "lat": -34.854247
    },
    {
        "postcode": "5086",
        "locality": "MANNINGHAM",
        "state": "SA",
        "long": 138.64344,
        "lat": -34.854247
    },
    {
        "postcode": "5086",
        "locality": "OAKDEN",
        "state": "SA",
        "long": 138.64344,
        "lat": -34.854247
    },
    {
        "postcode": "5087",
        "locality": "KLEMZIG",
        "state": "SA",
        "long": 138.637707,
        "lat": -34.876988
    },
    {
        "postcode": "5087",
        "locality": "WINDSOR GARDENS",
        "state": "SA",
        "long": 138.637707,
        "lat": -34.876988
    },
    {
        "postcode": "5088",
        "locality": "HOLDEN HILL",
        "state": "SA",
        "long": 138.673783,
        "lat": -34.847141
    },
    {
        "postcode": "5089",
        "locality": "HIGHBURY",
        "state": "SA",
        "long": 138.724487,
        "lat": -34.851049
    },
    {
        "postcode": "5090",
        "locality": "HOPE VALLEY",
        "state": "SA",
        "long": 138.704628,
        "lat": -34.843346
    },
    {
        "postcode": "5091",
        "locality": "BANKSIA PARK",
        "state": "SA",
        "long": 138.735572,
        "lat": -34.822615
    },
    {
        "postcode": "5091",
        "locality": "TEA TREE GULLY",
        "state": "SA",
        "long": 138.735572,
        "lat": -34.822615
    },
    {
        "postcode": "5091",
        "locality": "VISTA",
        "state": "SA",
        "long": 138.735572,
        "lat": -34.822615
    },
    {
        "postcode": "5092",
        "locality": "MODBURY",
        "state": "SA",
        "long": 138.680226,
        "lat": -34.821319
    },
    {
        "postcode": "5092",
        "locality": "MODBURY HEIGHTS",
        "state": "SA",
        "long": 138.680226,
        "lat": -34.821319
    },
    {
        "postcode": "5092",
        "locality": "MODBURY NORTH",
        "state": "SA",
        "long": 138.680226,
        "lat": -34.821319
    },
    {
        "postcode": "5092",
        "locality": "MODBURY NORTH DC",
        "state": "SA",
        "long": 138.680226,
        "lat": -34.821319
    },
    {
        "postcode": "5093",
        "locality": "PARA VISTA",
        "state": "SA",
        "long": 138.657974,
        "lat": -34.83977
    },
    {
        "postcode": "5093",
        "locality": "VALLEY VIEW",
        "state": "SA",
        "long": 138.657974,
        "lat": -34.83977
    },
    {
        "postcode": "5094",
        "locality": "CAVAN",
        "state": "SA",
        "long": 138.581513,
        "lat": -34.802736
    },
    {
        "postcode": "5094",
        "locality": "DRY CREEK",
        "state": "SA",
        "long": 138.581513,
        "lat": -34.802736
    },
    {
        "postcode": "5094",
        "locality": "GEPPS CROSS",
        "state": "SA",
        "long": 138.581513,
        "lat": -34.802736
    },
    {
        "postcode": "5095",
        "locality": "MAWSON LAKES",
        "state": "SA",
        "long": 138.6199,
        "lat": -34.820685
    },
    {
        "postcode": "5095",
        "locality": "POORAKA",
        "state": "SA",
        "long": 138.6199,
        "lat": -34.820685
    },
    {
        "postcode": "5095",
        "locality": "THE LEVELS",
        "state": "SA",
        "long": 138.6199,
        "lat": -34.820685
    },
    {
        "postcode": "5096",
        "locality": "GULFVIEW HEIGHTS",
        "state": "SA",
        "long": 138.644685,
        "lat": -34.798549
    },
    {
        "postcode": "5096",
        "locality": "PARA HILLS",
        "state": "SA",
        "long": 138.644685,
        "lat": -34.798549
    },
    {
        "postcode": "5096",
        "locality": "PARA HILLS WEST",
        "state": "SA",
        "long": 138.644685,
        "lat": -34.798549
    },
    {
        "postcode": "5097",
        "locality": "REDWOOD PARK",
        "state": "SA",
        "long": 138.707261,
        "lat": -34.819614
    },
    {
        "postcode": "5097",
        "locality": "RIDGEHAVEN",
        "state": "SA",
        "long": 138.707261,
        "lat": -34.819614
    },
    {
        "postcode": "5097",
        "locality": "ST AGNES",
        "state": "SA",
        "long": 138.707261,
        "lat": -34.819614
    },
    {
        "postcode": "5098",
        "locality": "INGLE FARM",
        "state": "SA",
        "long": 138.638946,
        "lat": -34.829603
    },
    {
        "postcode": "5098",
        "locality": "WALKLEY HEIGHTS",
        "state": "SA",
        "long": 138.638946,
        "lat": -34.829603
    },
    {
        "postcode": "5106",
        "locality": "PARAFIELD",
        "state": "SA",
        "long": 138.629463,
        "lat": -34.793169
    },
    {
        "postcode": "5106",
        "locality": "PARAFIELD AIRPORT",
        "state": "SA",
        "long": 138.629463,
        "lat": -34.793169
    },
    {
        "postcode": "5106",
        "locality": "SALISBURY SOUTH",
        "state": "SA",
        "long": 138.629463,
        "lat": -34.793169
    },
    {
        "postcode": "5106",
        "locality": "SALISBURY SOUTH BC",
        "state": "SA",
        "long": 138.629463,
        "lat": -34.793169
    },
    {
        "postcode": "5106",
        "locality": "SALISBURY SOUTH DC",
        "state": "SA",
        "long": 138.629463,
        "lat": -34.793169
    },
    {
        "postcode": "5107",
        "locality": "GREEN FIELDS",
        "state": "SA",
        "long": 138.609874,
        "lat": -34.784447
    },
    {
        "postcode": "5107",
        "locality": "PARAFIELD GARDENS",
        "state": "SA",
        "long": 138.609874,
        "lat": -34.784447
    },
    {
        "postcode": "5108",
        "locality": "PARALOWIE",
        "state": "SA",
        "long": 138.61884,
        "lat": -34.761553
    },
    {
        "postcode": "5108",
        "locality": "SALISBURY",
        "state": "SA",
        "long": 138.61884,
        "lat": -34.761553
    },
    {
        "postcode": "5108",
        "locality": "SALISBURY DOWNS",
        "state": "SA",
        "long": 138.61884,
        "lat": -34.761553
    },
    {
        "postcode": "5108",
        "locality": "SALISBURY NORTH",
        "state": "SA",
        "long": 138.61884,
        "lat": -34.761553
    },
    {
        "postcode": "5108",
        "locality": "SALISBURY NORTH WHITES ROAD",
        "state": "SA",
        "long": 138.61884,
        "lat": -34.761553
    },
    {
        "postcode": "5109",
        "locality": "BRAHMA LODGE",
        "state": "SA",
        "long": 138.663871,
        "lat": -34.771432
    },
    {
        "postcode": "5109",
        "locality": "SALISBURY EAST",
        "state": "SA",
        "long": 138.663871,
        "lat": -34.771432
    },
    {
        "postcode": "5109",
        "locality": "SALISBURY EAST NORTHBRI AVE",
        "state": "SA",
        "long": 138.654629,
        "lat": -34.7896
    },
    {
        "postcode": "5109",
        "locality": "SALISBURY HEIGHTS",
        "state": "SA",
        "long": 138.663871,
        "lat": -34.771432
    },
    {
        "postcode": "5109",
        "locality": "SALISBURY PARK",
        "state": "SA",
        "long": 138.663871,
        "lat": -34.771432
    },
    {
        "postcode": "5109",
        "locality": "SALISBURY PLAIN",
        "state": "SA",
        "long": 138.663871,
        "lat": -34.771432
    },
    {
        "postcode": "5110",
        "locality": "BOLIVAR",
        "state": "SA",
        "long": 138.565037,
        "lat": -34.72213
    },
    {
        "postcode": "5110",
        "locality": "BURTON",
        "state": "SA",
        "long": 138.565037,
        "lat": -34.72213
    },
    {
        "postcode": "5110",
        "locality": "DIREK",
        "state": "SA",
        "long": 138.565037,
        "lat": -34.72213
    },
    {
        "postcode": "5110",
        "locality": "GLOBE DERBY PARK",
        "state": "SA",
        "long": 138.565037,
        "lat": -34.72213
    },
    {
        "postcode": "5110",
        "locality": "ST KILDA",
        "state": "SA",
        "long": 138.565037,
        "lat": -34.72213
    },
    {
        "postcode": "5110",
        "locality": "WATERLOO CORNER",
        "state": "SA",
        "long": 138.565037,
        "lat": -34.72213
    },
    {
        "postcode": "5111",
        "locality": "EDINBURGH",
        "state": "SA",
        "long": 138.62532,
        "lat": -34.709347
    },
    {
        "postcode": "5111",
        "locality": "EDINBURGH RAAF",
        "state": "SA",
        "long": 138.645293,
        "lat": -34.716548
    },
    {
        "postcode": "5112",
        "locality": "ELIZABETH",
        "state": "SA",
        "long": 138.666615,
        "lat": -34.726229
    },
    {
        "postcode": "5112",
        "locality": "ELIZABETH EAST",
        "state": "SA",
        "long": 138.666615,
        "lat": -34.726229
    },
    {
        "postcode": "5112",
        "locality": "ELIZABETH GROVE",
        "state": "SA",
        "long": 138.666615,
        "lat": -34.726229
    },
    {
        "postcode": "5112",
        "locality": "ELIZABETH SOUTH",
        "state": "SA",
        "long": 138.666615,
        "lat": -34.726229
    },
    {
        "postcode": "5112",
        "locality": "ELIZABETH VALE",
        "state": "SA",
        "long": 138.666615,
        "lat": -34.726229
    },
    {
        "postcode": "5112",
        "locality": "HILLBANK",
        "state": "SA",
        "long": 138.666615,
        "lat": -34.726229
    },
    {
        "postcode": "5113",
        "locality": "DAVOREN PARK",
        "state": "SA",
        "long": 138.674449,
        "lat": -34.702506
    },
    {
        "postcode": "5113",
        "locality": "DAVOREN PARK NORTH",
        "state": "SA",
        "long": 138.674449,
        "lat": -34.702506
    },
    {
        "postcode": "5113",
        "locality": "DAVOREN PARK SOUTH",
        "state": "SA",
        "long": 138.674449,
        "lat": -34.702506
    },
    {
        "postcode": "5113",
        "locality": "EDINBURGH NORTH",
        "state": "SA",
        "long": 138.6581221,
        "lat": -34.70432849
    },
    {
        "postcode": "5113",
        "locality": "ELIZABETH DOWNS",
        "state": "SA",
        "long": 138.674449,
        "lat": -34.702506
    },
    {
        "postcode": "5113",
        "locality": "ELIZABETH NORTH",
        "state": "SA",
        "long": 138.674449,
        "lat": -34.702506
    },
    {
        "postcode": "5113",
        "locality": "ELIZABETH PARK",
        "state": "SA",
        "long": 138.674449,
        "lat": -34.702506
    },
    {
        "postcode": "5113",
        "locality": "ELIZABETH WEST",
        "state": "SA",
        "long": 138.674449,
        "lat": -34.702506
    },
    {
        "postcode": "5113",
        "locality": "ELIZABETH WEST DC",
        "state": "SA",
        "long": 138.674449,
        "lat": -34.702506
    },
    {
        "postcode": "5114",
        "locality": "ANDREWS FARM",
        "state": "SA",
        "long": 138.754254,
        "lat": -34.718681
    },
    {
        "postcode": "5114",
        "locality": "BLAKEVIEW",
        "state": "SA",
        "long": 138.754254,
        "lat": -34.718681
    },
    {
        "postcode": "5114",
        "locality": "CRAIGMORE",
        "state": "SA",
        "long": 138.754254,
        "lat": -34.718681
    },
    {
        "postcode": "5114",
        "locality": "GOULD CREEK",
        "state": "SA",
        "long": 138.754254,
        "lat": -34.718681
    },
    {
        "postcode": "5114",
        "locality": "HUMBUG SCRUB",
        "state": "SA",
        "long": 138.754254,
        "lat": -34.718681
    },
    {
        "postcode": "5114",
        "locality": "ONE TREE HILL",
        "state": "SA",
        "long": 138.754254,
        "lat": -34.718681
    },
    {
        "postcode": "5114",
        "locality": "SAMPSON FLAT",
        "state": "SA",
        "long": 138.754254,
        "lat": -34.718681
    },
    {
        "postcode": "5114",
        "locality": "SMITHFIELD",
        "state": "SA",
        "long": 138.754254,
        "lat": -34.718681
    },
    {
        "postcode": "5114",
        "locality": "SMITHFIELD PLAINS",
        "state": "SA",
        "long": 138.754254,
        "lat": -34.718681
    },
    {
        "postcode": "5114",
        "locality": "SMITHFIELD WEST",
        "state": "SA",
        "long": 138.754254,
        "lat": -34.718681
    },
    {
        "postcode": "5114",
        "locality": "ULEYBURY",
        "state": "SA",
        "long": 138.754254,
        "lat": -34.718681
    },
    {
        "postcode": "5114",
        "locality": "YATTALUNGA",
        "state": "SA",
        "long": 138.754254,
        "lat": -34.718681
    },
    {
        "postcode": "5115",
        "locality": "KUDLA",
        "state": "SA",
        "long": 138.681702,
        "lat": -34.669486
    },
    {
        "postcode": "5115",
        "locality": "MUNNO PARA",
        "state": "SA",
        "long": 138.681702,
        "lat": -34.669486
    },
    {
        "postcode": "5115",
        "locality": "MUNNO PARA DOWNS",
        "state": "SA",
        "long": 138.681702,
        "lat": -34.669486
    },
    {
        "postcode": "5115",
        "locality": "MUNNO PARA WEST",
        "state": "SA",
        "long": 138.681702,
        "lat": -34.669486
    },
    {
        "postcode": "5116",
        "locality": "EVANSTON",
        "state": "SA",
        "long": 138.724059,
        "lat": -34.622783
    },
    {
        "postcode": "5116",
        "locality": "EVANSTON GARDENS",
        "state": "SA",
        "long": 138.724059,
        "lat": -34.622783
    },
    {
        "postcode": "5116",
        "locality": "EVANSTON PARK",
        "state": "SA",
        "long": 138.724059,
        "lat": -34.622783
    },
    {
        "postcode": "5116",
        "locality": "EVANSTON SOUTH",
        "state": "SA",
        "long": 138.724059,
        "lat": -34.622783
    },
    {
        "postcode": "5116",
        "locality": "HILLIER",
        "state": "SA",
        "long": 138.724059,
        "lat": -34.622783
    },
    {
        "postcode": "5117",
        "locality": "ANGLE VALE",
        "state": "SA",
        "long": 138.636537,
        "lat": -34.641267
    },
    {
        "postcode": "5118",
        "locality": "BIBARINGA",
        "state": "SA",
        "long": 138.705675,
        "lat": -34.58378
    },
    {
        "postcode": "5118",
        "locality": "BUCHFELDE",
        "state": "SA",
        "long": 138.705675,
        "lat": -34.58378
    },
    {
        "postcode": "5118",
        "locality": "CONCORDIA",
        "state": "SA",
        "long": 138.705675,
        "lat": -34.58378
    },
    {
        "postcode": "5118",
        "locality": "GAWLER",
        "state": "SA",
        "long": 138.705675,
        "lat": -34.58378
    },
    {
        "postcode": "5118",
        "locality": "GAWLER BELT",
        "state": "SA",
        "long": 138.705675,
        "lat": -34.58378
    },
    {
        "postcode": "5118",
        "locality": "GAWLER EAST",
        "state": "SA",
        "long": 138.705675,
        "lat": -34.58378
    },
    {
        "postcode": "5118",
        "locality": "GAWLER RIVER",
        "state": "SA",
        "long": 138.705675,
        "lat": -34.58378
    },
    {
        "postcode": "5118",
        "locality": "GAWLER SOUTH",
        "state": "SA",
        "long": 138.705675,
        "lat": -34.58378
    },
    {
        "postcode": "5118",
        "locality": "GAWLER WEST",
        "state": "SA",
        "long": 138.705675,
        "lat": -34.58378
    },
    {
        "postcode": "5118",
        "locality": "HEWETT",
        "state": "SA",
        "long": 138.705675,
        "lat": -34.58378
    },
    {
        "postcode": "5118",
        "locality": "KALBEEBA",
        "state": "SA",
        "long": 138.705675,
        "lat": -34.58378
    },
    {
        "postcode": "5118",
        "locality": "KANGAROO FLAT",
        "state": "SA",
        "long": 138.705675,
        "lat": -34.58378
    },
    {
        "postcode": "5118",
        "locality": "KINGSFORD",
        "state": "SA",
        "long": 138.705675,
        "lat": -34.58378
    },
    {
        "postcode": "5118",
        "locality": "REID",
        "state": "SA",
        "long": 138.7333188,
        "lat": -34.59765003
    },
    {
        "postcode": "5118",
        "locality": "WARD BELT",
        "state": "SA",
        "long": 138.705675,
        "lat": -34.58378
    },
    {
        "postcode": "5118",
        "locality": "WILLASTON",
        "state": "SA",
        "long": 138.705675,
        "lat": -34.58378
    },
    {
        "postcode": "5120",
        "locality": "BUCKLAND PARK",
        "state": "SA",
        "long": 138.507899,
        "lat": -34.668553
    },
    {
        "postcode": "5120",
        "locality": "VIRGINIA",
        "state": "SA",
        "long": 138.507899,
        "lat": -34.668553
    },
    {
        "postcode": "5121",
        "locality": "EYRE",
        "state": "SA",
        "long": 138.6507658,
        "lat": -34.68857809
    },
    {
        "postcode": "5121",
        "locality": "MACDONALD PARK",
        "state": "SA",
        "long": 138.616157,
        "lat": -34.681077
    },
    {
        "postcode": "5121",
        "locality": "PENFIELD",
        "state": "SA",
        "long": 138.616157,
        "lat": -34.681077
    },
    {
        "postcode": "5121",
        "locality": "PENFIELD GARDENS",
        "state": "SA",
        "long": 138.616157,
        "lat": -34.681077
    },
    {
        "postcode": "5125",
        "locality": "GOLDEN GROVE",
        "state": "SA",
        "long": 138.738733,
        "lat": -34.773234
    },
    {
        "postcode": "5125",
        "locality": "GOLDEN GROVE VILLAGE",
        "state": "SA",
        "long": 138.738733,
        "lat": -34.773234
    },
    {
        "postcode": "5125",
        "locality": "GREENWITH",
        "state": "SA",
        "long": 138.738733,
        "lat": -34.773234
    },
    {
        "postcode": "5126",
        "locality": "FAIRVIEW PARK",
        "state": "SA",
        "long": 138.724953,
        "lat": -34.793414
    },
    {
        "postcode": "5126",
        "locality": "SURREY DOWNS",
        "state": "SA",
        "long": 138.724953,
        "lat": -34.793414
    },
    {
        "postcode": "5126",
        "locality": "YATALA VALE",
        "state": "SA",
        "long": 138.724953,
        "lat": -34.793414
    },
    {
        "postcode": "5127",
        "locality": "WYNN VALE",
        "state": "SA",
        "long": 138.674657,
        "lat": -34.796682
    },
    {
        "postcode": "5131",
        "locality": "HOUGHTON",
        "state": "SA",
        "long": 138.758111,
        "lat": -34.795292
    },
    {
        "postcode": "5131",
        "locality": "LOWER HERMITAGE",
        "state": "SA",
        "long": 138.758111,
        "lat": -34.795292
    },
    {
        "postcode": "5131",
        "locality": "UPPER HERMITAGE",
        "state": "SA",
        "long": 138.758111,
        "lat": -34.795292
    },
    {
        "postcode": "5132",
        "locality": "PARACOMBE",
        "state": "SA",
        "long": 138.75703,
        "lat": -34.857324
    },
    {
        "postcode": "5133",
        "locality": "INGLEWOOD",
        "state": "SA",
        "long": 138.776976,
        "lat": -34.810928
    },
    {
        "postcode": "5134",
        "locality": "CHERRYVILLE",
        "state": "SA",
        "long": 138.760552,
        "lat": -34.891863
    },
    {
        "postcode": "5134",
        "locality": "MONTACUTE",
        "state": "SA",
        "long": 138.760552,
        "lat": -34.891863
    },
    {
        "postcode": "5136",
        "locality": "NORTON SUMMIT",
        "state": "SA",
        "long": 138.735107,
        "lat": -34.921123
    },
    {
        "postcode": "5137",
        "locality": "ASHTON",
        "state": "SA",
        "long": 138.735962,
        "lat": -34.945777
    },
    {
        "postcode": "5137",
        "locality": "MARBLE HILL",
        "state": "SA",
        "long": 138.735962,
        "lat": -34.945777
    },
    {
        "postcode": "5138",
        "locality": "BASKET RANGE",
        "state": "SA",
        "long": 138.768586,
        "lat": -34.934914
    },
    {
        "postcode": "5139",
        "locality": "FOREST RANGE",
        "state": "SA",
        "long": 138.788705,
        "lat": -34.924843
    },
    {
        "postcode": "5140",
        "locality": "GREENHILL",
        "state": "SA",
        "long": 138.710203,
        "lat": -34.939245
    },
    {
        "postcode": "5141",
        "locality": "HORSNELL GULLY",
        "state": "SA",
        "long": 138.722419,
        "lat": -34.957325
    },
    {
        "postcode": "5141",
        "locality": "SUMMERTOWN",
        "state": "SA",
        "long": 138.722419,
        "lat": -34.957325
    },
    {
        "postcode": "5142",
        "locality": "URAIDLA",
        "state": "SA",
        "long": 138.740223,
        "lat": -34.960813
    },
    {
        "postcode": "5144",
        "locality": "CAREY GULLY",
        "state": "SA",
        "long": 138.769031,
        "lat": -34.968504
    },
    {
        "postcode": "5150",
        "locality": "EAGLE ON THE HILL",
        "state": "SA",
        "long": 138.654942,
        "lat": -35.010886
    },
    {
        "postcode": "5150",
        "locality": "LEAWOOD GARDENS",
        "state": "SA",
        "long": 138.654942,
        "lat": -35.010886
    },
    {
        "postcode": "5151",
        "locality": "PICCADILLY",
        "state": "SA",
        "long": 138.723897,
        "lat": -34.974283
    },
    {
        "postcode": "5152",
        "locality": "CLELAND",
        "state": "SA",
        "long": 138.703957,
        "lat": -34.998401
    },
    {
        "postcode": "5152",
        "locality": "CRAFERS",
        "state": "SA",
        "long": 138.703957,
        "lat": -34.998401
    },
    {
        "postcode": "5152",
        "locality": "CRAFERS WEST",
        "state": "SA",
        "long": 138.703957,
        "lat": -34.998401
    },
    {
        "postcode": "5152",
        "locality": "MOUNT LOFTY",
        "state": "SA",
        "long": 138.703957,
        "lat": -34.998401
    },
    {
        "postcode": "5152",
        "locality": "STIRLING",
        "state": "SA",
        "long": 138.703957,
        "lat": -34.998401
    },
    {
        "postcode": "5153",
        "locality": "BIGGS FLAT",
        "state": "SA",
        "long": 138.757945,
        "lat": -35.091002
    },
    {
        "postcode": "5153",
        "locality": "BRADBURY",
        "state": "SA",
        "long": 138.757945,
        "lat": -35.091002
    },
    {
        "postcode": "5153",
        "locality": "CHAPEL HILL",
        "state": "SA",
        "long": 138.7644846,
        "lat": -35.08426812
    },
    {
        "postcode": "5153",
        "locality": "ECHUNGA",
        "state": "SA",
        "long": 138.757945,
        "lat": -35.091002
    },
    {
        "postcode": "5153",
        "locality": "FLAXLEY",
        "state": "SA",
        "long": 138.757945,
        "lat": -35.091002
    },
    {
        "postcode": "5153",
        "locality": "GREEN HILLS RANGE",
        "state": "SA",
        "long": 138.8011543,
        "lat": -35.16614741
    },
    {
        "postcode": "5153",
        "locality": "HEATHFIELD",
        "state": "SA",
        "long": 138.757945,
        "lat": -35.091002
    },
    {
        "postcode": "5153",
        "locality": "IRONBANK",
        "state": "SA",
        "long": 138.757945,
        "lat": -35.091002
    },
    {
        "postcode": "5153",
        "locality": "JUPITER CREEK",
        "state": "SA",
        "long": 138.7535254,
        "lat": -35.11804348
    },
    {
        "postcode": "5153",
        "locality": "LONGWOOD",
        "state": "SA",
        "long": 138.757945,
        "lat": -35.091002
    },
    {
        "postcode": "5153",
        "locality": "MACCLESFIELD",
        "state": "SA",
        "long": 138.757945,
        "lat": -35.091002
    },
    {
        "postcode": "5153",
        "locality": "MYLOR",
        "state": "SA",
        "long": 138.757945,
        "lat": -35.091002
    },
    {
        "postcode": "5153",
        "locality": "SCOTT CREEK",
        "state": "SA",
        "long": 138.757945,
        "lat": -35.091002
    },
    {
        "postcode": "5154",
        "locality": "ALDGATE",
        "state": "SA",
        "long": 138.73592,
        "lat": -35.023252
    },
    {
        "postcode": "5155",
        "locality": "BRIDGEWATER",
        "state": "SA",
        "long": 138.756728,
        "lat": -35.020077
    },
    {
        "postcode": "5155",
        "locality": "MOUNT GEORGE",
        "state": "SA",
        "long": 138.756728,
        "lat": -35.020077
    },
    {
        "postcode": "5156",
        "locality": "UPPER STURT",
        "state": "SA",
        "long": 138.656697,
        "lat": -35.030185
    },
    {
        "postcode": "5157",
        "locality": "ASHBOURNE",
        "state": "SA",
        "long": 138.633118,
        "lat": -35.143492
    },
    {
        "postcode": "5157",
        "locality": "BULL CREEK",
        "state": "SA",
        "long": 138.633118,
        "lat": -35.143492
    },
    {
        "postcode": "5157",
        "locality": "CHERRY GARDENS",
        "state": "SA",
        "long": 138.633118,
        "lat": -35.143492
    },
    {
        "postcode": "5157",
        "locality": "CLARENDON",
        "state": "SA",
        "long": 138.633118,
        "lat": -35.143492
    },
    {
        "postcode": "5157",
        "locality": "COROMANDEL EAST",
        "state": "SA",
        "long": 138.633118,
        "lat": -35.143492
    },
    {
        "postcode": "5157",
        "locality": "DORSET VALE",
        "state": "SA",
        "long": 138.633118,
        "lat": -35.143492
    },
    {
        "postcode": "5157",
        "locality": "KANGARILLA",
        "state": "SA",
        "long": 138.633118,
        "lat": -35.143492
    },
    {
        "postcode": "5157",
        "locality": "MCHARG CREEK",
        "state": "SA",
        "long": 138.633118,
        "lat": -35.143492
    },
    {
        "postcode": "5158",
        "locality": "HALLETT COVE",
        "state": "SA",
        "long": 138.519781,
        "lat": -35.084001
    },
    {
        "postcode": "5158",
        "locality": "O\u2019HALLORAN HILL",
        "state": "SA",
        "long": 138.518026,
        "lat": -35.077039
    },
    {
        "postcode": "5158",
        "locality": "O'HALLORAN HILL",
        "state": "SA",
        "long": 138.519781,
        "lat": -35.084001
    },
    {
        "postcode": "5158",
        "locality": "O'HALLORAN HILL DC",
        "state": "SA",
        "long": 138.519781,
        "lat": -35.084001
    },
    {
        "postcode": "5158",
        "locality": "SHEIDOW PARK",
        "state": "SA",
        "long": 138.519781,
        "lat": -35.084001
    },
    {
        "postcode": "5158",
        "locality": "TROTT PARK",
        "state": "SA",
        "long": 138.519781,
        "lat": -35.084001
    },
    {
        "postcode": "5159",
        "locality": "ABERFOYLE PARK",
        "state": "SA",
        "long": 138.603897,
        "lat": -35.061705
    },
    {
        "postcode": "5159",
        "locality": "CHANDLERS HILL",
        "state": "SA",
        "long": 138.603897,
        "lat": -35.061705
    },
    {
        "postcode": "5159",
        "locality": "FLAGSTAFF HILL",
        "state": "SA",
        "long": 138.603897,
        "lat": -35.061705
    },
    {
        "postcode": "5159",
        "locality": "HAPPY VALLEY",
        "state": "SA",
        "long": 138.603897,
        "lat": -35.061705
    },
    {
        "postcode": "5160",
        "locality": "LONSDALE",
        "state": "SA",
        "long": 138.50172,
        "lat": -35.110123
    },
    {
        "postcode": "5160",
        "locality": "LONSDALE DC",
        "state": "SA",
        "long": 138.50172,
        "lat": -35.110123
    },
    {
        "postcode": "5160",
        "locality": "PORT STANVAC",
        "state": "SA",
        "long": 138.50172,
        "lat": -35.110123
    },
    {
        "postcode": "5161",
        "locality": "OLD REYNELLA",
        "state": "SA",
        "long": 138.515652,
        "lat": -35.096383
    },
    {
        "postcode": "5161",
        "locality": "REYNELLA",
        "state": "SA",
        "long": 138.515652,
        "lat": -35.096383
    },
    {
        "postcode": "5161",
        "locality": "REYNELLA EAST",
        "state": "SA",
        "long": 138.515652,
        "lat": -35.096383
    },
    {
        "postcode": "5162",
        "locality": "MORPHETT VALE",
        "state": "SA",
        "long": 138.565224,
        "lat": -35.112119
    },
    {
        "postcode": "5162",
        "locality": "WOODCROFT",
        "state": "SA",
        "long": 138.565224,
        "lat": -35.112119
    },
    {
        "postcode": "5163",
        "locality": "HACKHAM",
        "state": "SA",
        "long": 138.552209,
        "lat": -35.147923
    },
    {
        "postcode": "5163",
        "locality": "HACKHAM WEST",
        "state": "SA",
        "long": 138.552209,
        "lat": -35.147923
    },
    {
        "postcode": "5163",
        "locality": "HUNTFIELD HEIGHTS",
        "state": "SA",
        "long": 138.552209,
        "lat": -35.147923
    },
    {
        "postcode": "5163",
        "locality": "ONKAPARINGA HILLS",
        "state": "SA",
        "long": 138.552209,
        "lat": -35.147923
    },
    {
        "postcode": "5164",
        "locality": "CHRISTIE DOWNS",
        "state": "SA",
        "long": 138.500365,
        "lat": -35.124824
    },
    {
        "postcode": "5165",
        "locality": "CHRISTIES BEACH",
        "state": "SA",
        "long": 138.475092,
        "lat": -35.137389
    },
    {
        "postcode": "5165",
        "locality": "CHRISTIES BEACH NORTH",
        "state": "SA",
        "long": 138.475092,
        "lat": -35.137389
    },
    {
        "postcode": "5166",
        "locality": "O\u2019SULLIVAN BEACH",
        "state": "SA",
        "long": 138.478636,
        "lat": -35.115305
    },
    {
        "postcode": "5166",
        "locality": "O'SULLIVAN BEACH",
        "state": "SA",
        "long": 138.473209,
        "lat": -35.124126
    },
    {
        "postcode": "5167",
        "locality": "PORT NOARLUNGA",
        "state": "SA",
        "long": 138.481211,
        "lat": -35.166866
    },
    {
        "postcode": "5167",
        "locality": "PORT NOARLUNGA SOUTH",
        "state": "SA",
        "long": 138.481211,
        "lat": -35.166866
    },
    {
        "postcode": "5168",
        "locality": "NOARLUNGA CENTRE",
        "state": "SA",
        "long": 138.49632,
        "lat": -35.149737
    },
    {
        "postcode": "5168",
        "locality": "NOARLUNGA DOWNS",
        "state": "SA",
        "long": 138.49632,
        "lat": -35.149737
    },
    {
        "postcode": "5168",
        "locality": "OLD NOARLUNGA",
        "state": "SA",
        "long": 138.49632,
        "lat": -35.149737
    },
    {
        "postcode": "5169",
        "locality": "MOANA",
        "state": "SA",
        "long": 138.477958,
        "lat": -35.194211
    },
    {
        "postcode": "5169",
        "locality": "SEAFORD",
        "state": "SA",
        "long": 138.477958,
        "lat": -35.194211
    },
    {
        "postcode": "5169",
        "locality": "SEAFORD HEIGHTS",
        "state": "SA",
        "long": 138.477958,
        "lat": -35.194211
    },
    {
        "postcode": "5169",
        "locality": "SEAFORD MEADOWS",
        "state": "SA",
        "long": 138.477958,
        "lat": -35.194211
    },
    {
        "postcode": "5169",
        "locality": "SEAFORD RISE",
        "state": "SA",
        "long": 138.477958,
        "lat": -35.194211
    },
    {
        "postcode": "5170",
        "locality": "MASLIN BEACH",
        "state": "SA",
        "long": 138.478943,
        "lat": -35.237265
    },
    {
        "postcode": "5171",
        "locality": "BLEWITT SPRINGS",
        "state": "SA",
        "long": 138.553437,
        "lat": -35.196481
    },
    {
        "postcode": "5171",
        "locality": "MCLAREN FLAT",
        "state": "SA",
        "long": 138.553437,
        "lat": -35.196481
    },
    {
        "postcode": "5171",
        "locality": "MCLAREN VALE",
        "state": "SA",
        "long": 138.553437,
        "lat": -35.196481
    },
    {
        "postcode": "5171",
        "locality": "PEDLER CREEK",
        "state": "SA",
        "long": 138.553437,
        "lat": -35.196481
    },
    {
        "postcode": "5171",
        "locality": "TATACHILLA",
        "state": "SA",
        "long": 138.553437,
        "lat": -35.196481
    },
    {
        "postcode": "5172",
        "locality": "DINGABLEDINGA",
        "state": "SA",
        "long": 138.555169,
        "lat": -35.28775
    },
    {
        "postcode": "5172",
        "locality": "HOPE FOREST",
        "state": "SA",
        "long": 138.555169,
        "lat": -35.28775
    },
    {
        "postcode": "5172",
        "locality": "KUITPO",
        "state": "SA",
        "long": 138.555169,
        "lat": -35.28775
    },
    {
        "postcode": "5172",
        "locality": "KUITPO COLONY",
        "state": "SA",
        "long": 138.555169,
        "lat": -35.28775
    },
    {
        "postcode": "5172",
        "locality": "KYEEMA",
        "state": "SA",
        "long": 138.555169,
        "lat": -35.28775
    },
    {
        "postcode": "5172",
        "locality": "MONTARRA",
        "state": "SA",
        "long": 138.555169,
        "lat": -35.28775
    },
    {
        "postcode": "5172",
        "locality": "PAGES FLAT",
        "state": "SA",
        "long": 138.555169,
        "lat": -35.28775
    },
    {
        "postcode": "5172",
        "locality": "THE RANGE",
        "state": "SA",
        "long": 138.555169,
        "lat": -35.28775
    },
    {
        "postcode": "5172",
        "locality": "WHITES VALLEY",
        "state": "SA",
        "long": 138.555169,
        "lat": -35.28775
    },
    {
        "postcode": "5172",
        "locality": "WILLUNGA",
        "state": "SA",
        "long": 138.555169,
        "lat": -35.28775
    },
    {
        "postcode": "5172",
        "locality": "WILLUNGA HILL",
        "state": "SA",
        "long": 138.555169,
        "lat": -35.28775
    },
    {
        "postcode": "5172",
        "locality": "WILLUNGA SOUTH",
        "state": "SA",
        "long": 138.555169,
        "lat": -35.28775
    },
    {
        "postcode": "5172",
        "locality": "YUNDI",
        "state": "SA",
        "long": 138.555169,
        "lat": -35.28775
    },
    {
        "postcode": "5173",
        "locality": "ALDINGA",
        "state": "SA",
        "long": 138.470002,
        "lat": -35.290568
    },
    {
        "postcode": "5173",
        "locality": "ALDINGA BEACH",
        "state": "SA",
        "long": 138.470002,
        "lat": -35.290568
    },
    {
        "postcode": "5173",
        "locality": "PORT WILLUNGA",
        "state": "SA",
        "long": 138.470002,
        "lat": -35.290568
    },
    {
        "postcode": "5173",
        "locality": "SILVER SANDS",
        "state": "SA",
        "long": 138.470002,
        "lat": -35.290568
    },
    {
        "postcode": "5174",
        "locality": "SELLICKS BEACH",
        "state": "SA",
        "long": 138.47117,
        "lat": -35.330569
    },
    {
        "postcode": "5174",
        "locality": "SELLICKS HILL",
        "state": "SA",
        "long": 138.47117,
        "lat": -35.330569
    },
    {
        "postcode": "5201",
        "locality": "BLACKFELLOWS CREEK",
        "state": "SA",
        "long": 138.727179,
        "lat": -35.206107
    },
    {
        "postcode": "5201",
        "locality": "KUITPO",
        "state": "SA",
        "long": 138.6814319,
        "lat": -35.21491388
    },
    {
        "postcode": "5201",
        "locality": "MEADOWS",
        "state": "SA",
        "long": 138.727179,
        "lat": -35.206107
    },
    {
        "postcode": "5201",
        "locality": "PARIS CREEK",
        "state": "SA",
        "long": 138.727179,
        "lat": -35.206107
    },
    {
        "postcode": "5201",
        "locality": "PROSPECT HILL",
        "state": "SA",
        "long": 138.727179,
        "lat": -35.206107
    },
    {
        "postcode": "5202",
        "locality": "HINDMARSH TIERS",
        "state": "SA",
        "long": 138.505922,
        "lat": -35.386025
    },
    {
        "postcode": "5202",
        "locality": "MYPONGA",
        "state": "SA",
        "long": 138.505922,
        "lat": -35.386025
    },
    {
        "postcode": "5202",
        "locality": "MYPONGA BEACH",
        "state": "SA",
        "long": 138.505922,
        "lat": -35.386025
    },
    {
        "postcode": "5203",
        "locality": "BALD HILLS",
        "state": "SA",
        "long": 138.388132,
        "lat": -35.450839
    },
    {
        "postcode": "5203",
        "locality": "PARAWA",
        "state": "SA",
        "long": 138.388132,
        "lat": -35.450839
    },
    {
        "postcode": "5203",
        "locality": "TORRENS VALE",
        "state": "SA",
        "long": 138.388132,
        "lat": -35.450839
    },
    {
        "postcode": "5203",
        "locality": "TUNKALILLA",
        "state": "SA",
        "long": 138.388132,
        "lat": -35.450839
    },
    {
        "postcode": "5203",
        "locality": "WATTLE FLAT",
        "state": "SA",
        "long": 138.388132,
        "lat": -35.450839
    },
    {
        "postcode": "5203",
        "locality": "YANKALILLA",
        "state": "SA",
        "long": 138.388132,
        "lat": -35.450839
    },
    {
        "postcode": "5204",
        "locality": "CAPE JERVIS",
        "state": "SA",
        "long": 138.324567,
        "lat": -35.572164
    },
    {
        "postcode": "5204",
        "locality": "CARRICKALINGA",
        "state": "SA",
        "long": 138.324567,
        "lat": -35.572164
    },
    {
        "postcode": "5204",
        "locality": "DEEP CREEK",
        "state": "SA",
        "long": 138.324567,
        "lat": -35.572164
    },
    {
        "postcode": "5204",
        "locality": "DELAMERE",
        "state": "SA",
        "long": 138.324567,
        "lat": -35.572164
    },
    {
        "postcode": "5204",
        "locality": "HAY FLAT",
        "state": "SA",
        "long": 138.324567,
        "lat": -35.572164
    },
    {
        "postcode": "5204",
        "locality": "NORMANVILLE",
        "state": "SA",
        "long": 138.324567,
        "lat": -35.572164
    },
    {
        "postcode": "5204",
        "locality": "RAPID BAY",
        "state": "SA",
        "long": 138.324567,
        "lat": -35.572164
    },
    {
        "postcode": "5204",
        "locality": "SECOND VALLEY",
        "state": "SA",
        "long": 138.324567,
        "lat": -35.572164
    },
    {
        "postcode": "5204",
        "locality": "SILVERTON",
        "state": "SA",
        "long": 138.324567,
        "lat": -35.572164
    },
    {
        "postcode": "5204",
        "locality": "WIRRINA COVE",
        "state": "SA",
        "long": 138.324567,
        "lat": -35.572164
    },
    {
        "postcode": "5210",
        "locality": "MOUNT COMPASS",
        "state": "SA",
        "long": 138.655684,
        "lat": -35.387709
    },
    {
        "postcode": "5210",
        "locality": "MOUNT MAGNIFICENT",
        "state": "SA",
        "long": 138.655684,
        "lat": -35.387709
    },
    {
        "postcode": "5210",
        "locality": "NANGKITA",
        "state": "SA",
        "long": 138.655684,
        "lat": -35.387709
    },
    {
        "postcode": "5211",
        "locality": "BACK VALLEY",
        "state": "SA",
        "long": 138.627975,
        "lat": -35.566153
    },
    {
        "postcode": "5211",
        "locality": "CHITON",
        "state": "SA",
        "long": 138.529512,
        "lat": -35.534413
    },
    {
        "postcode": "5211",
        "locality": "ENCOUNTER BAY",
        "state": "SA",
        "long": 138.627975,
        "lat": -35.566153
    },
    {
        "postcode": "5211",
        "locality": "HAYBOROUGH",
        "state": "SA",
        "long": 138.627975,
        "lat": -35.566153
    },
    {
        "postcode": "5211",
        "locality": "HINDMARSH VALLEY",
        "state": "SA",
        "long": 138.627975,
        "lat": -35.566153
    },
    {
        "postcode": "5211",
        "locality": "INMAN VALLEY",
        "state": "SA",
        "long": 138.627975,
        "lat": -35.566153
    },
    {
        "postcode": "5211",
        "locality": "LOWER INMAN VALLEY",
        "state": "SA",
        "long": 138.627975,
        "lat": -35.566153
    },
    {
        "postcode": "5211",
        "locality": "MCCRACKEN",
        "state": "SA",
        "long": 138.627975,
        "lat": -35.566153
    },
    {
        "postcode": "5211",
        "locality": "MOUNT JAGGED",
        "state": "SA",
        "long": 138.627975,
        "lat": -35.566153
    },
    {
        "postcode": "5211",
        "locality": "VICTOR HARBOR",
        "state": "SA",
        "long": 138.627975,
        "lat": -35.566153
    },
    {
        "postcode": "5211",
        "locality": "VICTOR HARBOR CENTRAL",
        "state": "SA",
        "long": 138.607,
        "lat": -35.5635
    },
    {
        "postcode": "5211",
        "locality": "WAITPINGA",
        "state": "SA",
        "long": 138.627975,
        "lat": -35.566153
    },
    {
        "postcode": "5211",
        "locality": "WILLOW CREEK",
        "state": "SA",
        "long": 138.627975,
        "lat": -35.566153
    },
    {
        "postcode": "5211",
        "locality": "YILKI",
        "state": "SA",
        "long": 138.627975,
        "lat": -35.566153
    },
    {
        "postcode": "5212",
        "locality": "PORT ELLIOT",
        "state": "SA",
        "long": 138.668775,
        "lat": -35.520797
    },
    {
        "postcode": "5213",
        "locality": "MIDDLETON",
        "state": "SA",
        "long": 138.710195,
        "lat": -35.500615
    },
    {
        "postcode": "5214",
        "locality": "CURRENCY CREEK",
        "state": "SA",
        "long": 138.834806,
        "lat": -35.491206
    },
    {
        "postcode": "5214",
        "locality": "GOOLWA",
        "state": "SA",
        "long": 138.834806,
        "lat": -35.491206
    },
    {
        "postcode": "5214",
        "locality": "GOOLWA BEACH",
        "state": "SA",
        "long": 138.834806,
        "lat": -35.491206
    },
    {
        "postcode": "5214",
        "locality": "GOOLWA NORTH",
        "state": "SA",
        "long": 138.834806,
        "lat": -35.491206
    },
    {
        "postcode": "5214",
        "locality": "GOOLWA SOUTH",
        "state": "SA",
        "long": 138.834806,
        "lat": -35.491206
    },
    {
        "postcode": "5214",
        "locality": "HINDMARSH ISLAND",
        "state": "SA",
        "long": 138.834806,
        "lat": -35.491206
    },
    {
        "postcode": "5214",
        "locality": "MOSQUITO HILL",
        "state": "SA",
        "long": 138.834806,
        "lat": -35.491206
    },
    {
        "postcode": "5214",
        "locality": "MUNDOO ISLAND",
        "state": "SA",
        "long": 138.834806,
        "lat": -35.491206
    },
    {
        "postcode": "5220",
        "locality": "PARNDANA",
        "state": "SA",
        "long": 137.236746,
        "lat": -35.744959
    },
    {
        "postcode": "5221",
        "locality": "AMERICAN RIVER",
        "state": "SA",
        "long": 137.72022,
        "lat": -35.793776
    },
    {
        "postcode": "5221",
        "locality": "BALLAST HEAD",
        "state": "SA",
        "long": 137.72022,
        "lat": -35.793776
    },
    {
        "postcode": "5221",
        "locality": "MUSTON",
        "state": "SA",
        "long": 137.72022,
        "lat": -35.793776
    },
    {
        "postcode": "5222",
        "locality": "AMERICAN BEACH",
        "state": "SA",
        "long": 137.924659,
        "lat": -35.803421
    },
    {
        "postcode": "5222",
        "locality": "ANTECHAMBER BAY",
        "state": "SA",
        "long": 137.924659,
        "lat": -35.803421
    },
    {
        "postcode": "5222",
        "locality": "BAUDIN BEACH",
        "state": "SA",
        "long": 137.924659,
        "lat": -35.803421
    },
    {
        "postcode": "5222",
        "locality": "BROWN BEACH",
        "state": "SA",
        "long": 137.8424396,
        "lat": -35.79793384
    },
    {
        "postcode": "5222",
        "locality": "BROWNS BEACH",
        "state": "SA",
        "long": 137.924659,
        "lat": -35.803421
    },
    {
        "postcode": "5222",
        "locality": "CUTTLEFISH BAY",
        "state": "SA",
        "long": 137.924659,
        "lat": -35.803421
    },
    {
        "postcode": "5222",
        "locality": "DUDLEY EAST",
        "state": "SA",
        "long": 137.924659,
        "lat": -35.803421
    },
    {
        "postcode": "5222",
        "locality": "DUDLEY WEST",
        "state": "SA",
        "long": 137.924659,
        "lat": -35.803421
    },
    {
        "postcode": "5222",
        "locality": "HUNGERFORD",
        "state": "SA",
        "long": 137.924659,
        "lat": -35.803421
    },
    {
        "postcode": "5222",
        "locality": "IRONSTONE",
        "state": "SA",
        "long": 137.924659,
        "lat": -35.803421
    },
    {
        "postcode": "5222",
        "locality": "ISLAND BEACH",
        "state": "SA",
        "long": 137.924659,
        "lat": -35.803421
    },
    {
        "postcode": "5222",
        "locality": "KANGAROO HEAD",
        "state": "SA",
        "long": 137.924659,
        "lat": -35.803421
    },
    {
        "postcode": "5222",
        "locality": "PELICAN LAGOON",
        "state": "SA",
        "long": 137.924659,
        "lat": -35.803421
    },
    {
        "postcode": "5222",
        "locality": "PENNESHAW",
        "state": "SA",
        "long": 137.924659,
        "lat": -35.803421
    },
    {
        "postcode": "5222",
        "locality": "PORKY FLAT",
        "state": "SA",
        "long": 137.924659,
        "lat": -35.803421
    },
    {
        "postcode": "5222",
        "locality": "SAPPHIRETOWN",
        "state": "SA",
        "long": 137.924659,
        "lat": -35.803421
    },
    {
        "postcode": "5222",
        "locality": "WILLOUGHBY",
        "state": "SA",
        "long": 137.924659,
        "lat": -35.803421
    },
    {
        "postcode": "5222",
        "locality": "WILLSON RIVER",
        "state": "SA",
        "long": 137.924659,
        "lat": -35.803421
    },
    {
        "postcode": "5223",
        "locality": "BAY OF SHOALS",
        "state": "SA",
        "long": 137.541715,
        "lat": -35.811358
    },
    {
        "postcode": "5223",
        "locality": "BIRCHMORE",
        "state": "SA",
        "long": 137.541715,
        "lat": -35.811358
    },
    {
        "postcode": "5223",
        "locality": "BROWNLOW",
        "state": "SA",
        "long": 137.541715,
        "lat": -35.811358
    },
    {
        "postcode": "5223",
        "locality": "BROWNLOW KI",
        "state": "SA",
        "long": 137.6073939,
        "lat": -35.67173055
    },
    {
        "postcode": "5223",
        "locality": "CAPE BORDA",
        "state": "SA",
        "long": 137.541715,
        "lat": -35.811358
    },
    {
        "postcode": "5223",
        "locality": "CASSINI",
        "state": "SA",
        "long": 137.541715,
        "lat": -35.811358
    },
    {
        "postcode": "5223",
        "locality": "CYGNET RIVER",
        "state": "SA",
        "long": 137.541715,
        "lat": -35.811358
    },
    {
        "postcode": "5223",
        "locality": "D\u2019ESTREES BAY",
        "state": "SA",
        "long": 137.572636,
        "lat": -35.613861
    },
    {
        "postcode": "5223",
        "locality": "DE MOLE RIVER",
        "state": "SA",
        "long": 137.541715,
        "lat": -35.811358
    },
    {
        "postcode": "5223",
        "locality": "D'ESTREES BAY",
        "state": "SA",
        "long": 137.541715,
        "lat": -35.811358
    },
    {
        "postcode": "5223",
        "locality": "DUNCAN",
        "state": "SA",
        "long": 137.541715,
        "lat": -35.811358
    },
    {
        "postcode": "5223",
        "locality": "EMU BAY",
        "state": "SA",
        "long": 137.541715,
        "lat": -35.811358
    },
    {
        "postcode": "5223",
        "locality": "FLINDERS CHASE",
        "state": "SA",
        "long": 137.541715,
        "lat": -35.811358
    },
    {
        "postcode": "5223",
        "locality": "GOSSE",
        "state": "SA",
        "long": 137.541715,
        "lat": -35.811358
    },
    {
        "postcode": "5223",
        "locality": "HAINES",
        "state": "SA",
        "long": 137.541715,
        "lat": -35.811358
    },
    {
        "postcode": "5223",
        "locality": "HARRIET RIVER",
        "state": "SA",
        "long": 137.541715,
        "lat": -35.811358
    },
    {
        "postcode": "5223",
        "locality": "KARATTA",
        "state": "SA",
        "long": 137.541715,
        "lat": -35.811358
    },
    {
        "postcode": "5223",
        "locality": "KINGSCOTE",
        "state": "SA",
        "long": 137.541715,
        "lat": -35.811358
    },
    {
        "postcode": "5223",
        "locality": "KOHINOOR",
        "state": "SA",
        "long": 137.541715,
        "lat": -35.811358
    },
    {
        "postcode": "5223",
        "locality": "MACGILLIVRAY",
        "state": "SA",
        "long": 137.541715,
        "lat": -35.811358
    },
    {
        "postcode": "5223",
        "locality": "MENZIES",
        "state": "SA",
        "long": 137.541715,
        "lat": -35.811358
    },
    {
        "postcode": "5223",
        "locality": "MIDDLE RIVER",
        "state": "SA",
        "long": 137.541715,
        "lat": -35.811358
    },
    {
        "postcode": "5223",
        "locality": "NEPEAN BAY",
        "state": "SA",
        "long": 137.541715,
        "lat": -35.811358
    },
    {
        "postcode": "5223",
        "locality": "NEWLAND",
        "state": "SA",
        "long": 137.541715,
        "lat": -35.811358
    },
    {
        "postcode": "5223",
        "locality": "NORTH CAPE",
        "state": "SA",
        "long": 137.541715,
        "lat": -35.811358
    },
    {
        "postcode": "5223",
        "locality": "SEAL BAY",
        "state": "SA",
        "long": 137.541715,
        "lat": -35.811358
    },