[
    {
        "lat": -35.2777,
        "locality": "ANU",
        "long": 149.119,
        "postcode": "0200",
        "state": "ACT"
    },
    {
        "lat": -35.2777,
        "locality": "Australian National University",
        "long": 149.1189,
        "postcode": "0200",
        "state": "ACT"
    },
    {
        "lat": -12.458684,
        "locality": "DARWIN",
        "long": 130.83668,
        "postcode": "0800",
        "state": "NT"
    },
    {
        "lat": -12.458684,
        "locality": "DARWIN CITY",
        "long": 130.83668,
        "postcode": "0800",
        "state": "NT"
    },
    {
        "lat": -12.458684,
        "locality": "DARWIN",
        "long": 130.83668,
        "postcode": "0801",
        "state": "NT"
    },
    {
        "lat": -12.428017,
        "locality": "PARAP",
        "long": 130.873315,
        "postcode": "0804",
        "state": "NT"
    },
    {
        "lat": -12.381806,
        "locality": "ALAWA",
        "long": 130.866242,
        "postcode": "0810",
        "state": "NT"
    },
    {
        "lat": -12.381806,
        "locality": "BRINKIN",
        "long": 130.866242,
        "postcode": "0810",
        "state": "NT"
    },
    {
        "lat": -12.381806,
        "locality": "CASUARINA",
        "long": 130.866242,
        "postcode": "0810",
        "state": "NT"
    },
    {
        "lat": -12.39614166,
        "locality": "COCONUT GROVE",
        "long": 130.8502369,
        "postcode": "0810",
        "state": "NT"
    },
    {
        "lat": -12.381806,
        "locality": "JINGILI",
        "long": 130.866242,
        "postcode": "0810",
        "state": "NT"
    },
    {
        "lat": -12.381806,
        "locality": "LEE POINT",
        "long": 130.866242,
        "postcode": "0810",
        "state": "NT"
    },
    {
        "lat": -12.35911956,
        "locality": "LYONS",
        "long": 130.8885151,
        "postcode": "0810",
        "state": "NT"
    },
    {
        "lat": -12.381806,
        "locality": "MILLNER",
        "long": 130.866242,
        "postcode": "0810",
        "state": "NT"
    },
    {
        "lat": -12.381806,
        "locality": "MOIL",
        "long": 130.866242,
        "postcode": "0810",
        "state": "NT"
    },
    {
        "lat": -12.35811947,
        "locality": "MUIRHEAD",
        "long": 130.8959029,
        "postcode": "0810",
        "state": "NT"
    },
    {
        "lat": -12.381806,
        "locality": "NAKARA",
        "long": 130.866242,
        "postcode": "0810",
        "state": "NT"
    },
    {
        "lat": -12.381806,
        "locality": "NIGHTCLIFF",
        "long": 130.866242,
        "postcode": "0810",
        "state": "NT"
    },
    {
        "lat": -12.381806,
        "locality": "RAPID CREEK",
        "long": 130.866242,
        "postcode": "0810",
        "state": "NT"
    },
    {
        "lat": -12.381806,
        "locality": "TIWI",
        "long": 130.866242,
        "postcode": "0810",
        "state": "NT"
    },
    {
        "lat": -12.381806,
        "locality": "WAGAMAN",
        "long": 130.866242,
        "postcode": "0810",
        "state": "NT"
    },
    {
        "lat": -12.381806,
        "locality": "WANGURI",
        "long": 130.866242,
        "postcode": "0810",
        "state": "NT"
    },
    {
        "lat": -12.381806,
        "locality": "CASUARINA",
        "long": 130.866242,
        "postcode": "0811",
        "state": "NT"
    },
    {
        "lat": -12.39124885,
        "locality": "ANULA",
        "long": 130.89047,
        "postcode": "0812",
        "state": "NT"
    },
    {
        "lat": -12.34638634,
        "locality": "BUFFALO CREEK",
        "long": 130.9209831,
        "postcode": "0812",
        "state": "NT"
    },
    {
        "lat": -12.38479951,
        "locality": "HOLMES",
        "long": 130.9268602,
        "postcode": "0812",
        "state": "NT"
    },
    {
        "lat": -12.404778,
        "locality": "KARAMA",
        "long": 130.916098,
        "postcode": "0812",
        "state": "NT"
    },
    {
        "lat": -12.404778,
        "locality": "LEANYER",
        "long": 130.916098,
        "postcode": "0812",
        "state": "NT"
    },
    {
        "lat": -12.404778,
        "locality": "MALAK",
        "long": 130.916098,
        "postcode": "0812",
        "state": "NT"
    },
    {
        "lat": -12.404778,
        "locality": "MARRARA",
        "long": 130.916098,
        "postcode": "0812",
        "state": "NT"
    },
    {
        "lat": -12.404778,
        "locality": "NORTHLAKES",
        "long": 130.916098,
        "postcode": "0812",
        "state": "NT"
    },
    {
        "lat": -12.404778,
        "locality": "SANDERSON",
        "long": 130.916098,
        "postcode": "0812",
        "state": "NT"
    },
    {
        "lat": -12.404778,
        "locality": "WOODLEIGH GARDENS",
        "long": 130.916098,
        "postcode": "0812",
        "state": "NT"
    },
    {
        "lat": -12.404778,
        "locality": "WULAGI",
        "long": 130.916098,
        "postcode": "0812",
        "state": "NT"
    },
    {
        "lat": -12.404778,
        "locality": "SANDERSON",
        "long": 130.916098,
        "postcode": "0813",
        "state": "NT"
    },
    {
        "lat": -12.381806,
        "locality": "NIGHTCLIFF",
        "long": 130.866242,
        "postcode": "0814",
        "state": "NT"
    },
    {
        "lat": -12.3718,
        "locality": "CHARLES DARWIN UNIVERSITY",
        "long": 130.869,
        "postcode": "0815",
        "state": "NT"
    },
    {
        "lat": -12.428017,
        "locality": "BAGOT",
        "long": 130.873315,
        "postcode": "0820",
        "state": "NT"
    },
    {
        "lat": -12.428017,
        "locality": "BAYVIEW",
        "long": 130.873315,
        "postcode": "0820",
        "state": "NT"
    },
    {
        "lat": -12.428017,
        "locality": "CHARLES DARWIN",
        "long": 130.873315,
        "postcode": "0820",
        "state": "NT"
    },
    {
        "lat": -12.428017,
        "locality": "COONAWARRA",
        "long": 130.873315,
        "postcode": "0820",
        "state": "NT"
    },
    {
        "lat": -12.428017,
        "locality": "CULLEN BAY",
        "long": 130.873315,
        "postcode": "0820",
        "state": "NT"
    },
    {
        "lat": -12.4255956,
        "locality": "DARWIN DC",
        "long": 130.8664593,
        "postcode": "0820",
        "state": "NT"
    },
    {
        "lat": -12.428017,
        "locality": "DARWIN INTERNATIONAL AIRPORT",
        "long": 130.873315,
        "postcode": "0820",
        "state": "NT"
    },
    {
        "lat": -12.428017,
        "locality": "DARWIN MC",
        "long": 130.873315,
        "postcode": "0820",
        "state": "NT"
    },
    {
        "lat": -12.428017,
        "locality": "EAST POINT",
        "long": 130.873315,
        "postcode": "0820",
        "state": "NT"
    },
    {
        "lat": -12.4123871,
        "locality": "EATON",
        "long": 130.880692,
        "postcode": "0820",
        "state": "NT"
    },
    {
        "lat": -12.428017,
        "locality": "FANNIE BAY",
        "long": 130.873315,
        "postcode": "0820",
        "state": "NT"
    },
    {
        "lat": -12.428017,
        "locality": "LARRAKEYAH",
        "long": 130.873315,
        "postcode": "0820",
        "state": "NT"
    },
    {
        "lat": -12.428017,
        "locality": "LUDMILLA",
        "long": 130.873315,
        "postcode": "0820",
        "state": "NT"
    },
    {
        "lat": -12.428017,
        "locality": "PARAP",
        "long": 130.873315,
        "postcode": "0820",
        "state": "NT"
    },
    {
        "lat": -12.428017,
        "locality": "RAAF BASE DARWIN",
        "long": 130.873315,
        "postcode": "0820",
        "state": "NT"
    },
    {
        "lat": -12.428017,
        "locality": "STUART PARK",
        "long": 130.873315,
        "postcode": "0820",
        "state": "NT"
    },
    {
        "lat": -12.428017,
        "locality": "THE GARDENS",
        "long": 130.873315,
        "postcode": "0820",
        "state": "NT"
    },
    {
        "lat": -12.428017,
        "locality": "THE NARROWS",
        "long": 130.873315,
        "postcode": "0820",
        "state": "NT"
    },
    {
        "lat": -12.428017,
        "locality": "WINNELLIE",
        "long": 130.873315,
        "postcode": "0820",
        "state": "NT"
    },
    {
        "lat": -12.428017,
        "locality": "WOOLNER",
        "long": 130.873315,
        "postcode": "0820",
        "state": "NT"
    },
    {
        "lat": -13.643283,
        "locality": "WINNELLIE",
        "long": 136.947051,
        "postcode": "0821",
        "state": "NT"
    },
    {
        "lat": -13.643283,
        "locality": "ACACIA HILLS",
        "long": 136.947051,
        "postcode": "0822",
        "state": "NT"
    },
    {
        "lat": -13.98119125,
        "locality": "ANGURUGU",
        "long": 136.4612078,
        "postcode": "0822",
        "state": "NT"
    },
    {
        "lat": -13.91698485,
        "locality": "ANINDILYAKWA",
        "long": 136.5909616,
        "postcode": "0822",
        "state": "NT"
    },
    {
        "lat": -12.9305044,
        "locality": "ANNIE RIVER",
        "long": 133.3848319,
        "postcode": "0822",
        "state": "NT"
    },
    {
        "lat": -11.6035121,
        "locality": "BATHURST ISLAND",
        "long": 130.3496894,
        "postcode": "0822",
        "state": "NT"
    },
    {
        "lat": -13.643283,
        "locality": "BEES CREEK",
        "long": 136.947051,
        "postcode": "0822",
        "state": "NT"
    },
    {
        "lat": -12.53818467,
        "locality": "BELYUEN",
        "long": 130.6831805,
        "postcode": "0822",
        "state": "NT"
    },
    {
        "lat": -12.50224007,
        "locality": "BLACK JUNGLE",
        "long": 131.1942977,
        "postcode": "0822",
        "state": "NT"
    },
    {
        "lat": -12.68983104,
        "locality": "BLACKMORE",
        "long": 130.9175773,
        "postcode": "0822",
        "state": "NT"
    },
    {
        "lat": -13.643283,
        "locality": "BORDER STORE",
        "long": 136.947051,
        "postcode": "0822",
        "state": "NT"
    },
    {
        "lat": -13.50171859,
        "locality": "BURRUNDIE",
        "long": 131.8449886,
        "postcode": "0822",
        "state": "NT"
    },
    {
        "lat": -12.79290292,
        "locality": "BYNOE",
        "long": 130.6320309,
        "postcode": "0822",
        "state": "NT"
    },
    {
        "lat": -12.62538633,
        "locality": "BYNOE HARBOUR",
        "long": 130.5103483,
        "postcode": "0822",
        "state": "NT"
    },
    {
        "lat": -13.17350435,
        "locality": "CAMP CREEK",
        "long": 130.9320173,
        "postcode": "0822",
        "state": "NT"
    },
    {
        "lat": -12.55219169,
        "locality": "CHANNEL ISLAND",
        "long": 130.8605303,
        "postcode": "0822",
        "state": "NT"
    },
    {
        "lat": -12.45079537,
        "locality": "CHARLES DARWIN",
        "long": 130.8766339,
        "postcode": "0822",
        "state": "NT"
    },
    {
        "lat": -12.84045347,
        "locality": "CHARLOTTE",
        "long": 130.8116588,
        "postcode": "0822",
        "state": "NT"
    },
    {
        "lat": -14.5318367,
        "locality": "CLARAVALE",
        "long": 131.4120025,
        "postcode": "0822",
        "state": "NT"
    },
    {
        "lat": -11.34530652,
        "locality": "COBOURG",
        "long": 132.1914189,
        "postcode": "0822",
        "state": "NT"
    },
    {
        "lat": -12.90975469,
        "locality": "COLLETT CREEK",
        "long": 130.9188279,
        "postcode": "0822",
        "state": "NT"
    },
    {
        "lat": -13.02119253,
        "locality": "COOMALIE CREEK",
        "long": 131.1688363,
        "postcode": "0822",
        "state": "NT"
    },
    {
        "lat": -13.643283,
        "locality": "COX PENINSULA",
        "long": 136.947051,
        "postcode": "0822",
        "state": "NT"
    },
    {
        "lat": -13.643283,
        "locality": "CROKER ISLAND",
        "long": 136.947051,
        "postcode": "0822",
        "state": "NT"
    },
    {
        "lat": -13.643283,
        "locality": "DALY RIVER",
        "long": 136.947051,
        "postcode": "0822",
        "state": "NT"
    },
    {
        "lat": -13.643283,
        "locality": "DARWIN MC",
        "long": 136.947051,
        "postcode": "0822",
        "state": "NT"
    },
    {
        "lat": -12.91652424,
        "locality": "DARWIN RIVER DAM",
        "long": 131.038648,
        "postcode": "0822",
        "state": "NT"
    },
    {
        "lat": -12.505532,
        "locality": "DELISSAVILLE",
        "long": 130.995425,
        "postcode": "0822",
        "state": "NT"
    },
    {
        "lat": -13.81785615,
        "locality": "DOUGLAS-DALY",
        "long": 131.48274,
        "postcode": "0822",
        "state": "NT"
    },
    {
        "lat": -12.48005564,
        "locality": "EAST ARM",
        "long": 130.9027533,
        "postcode": "0822",
        "state": "NT"
    },
    {
        "lat": -12.44602304,
        "locality": "EAST ARNHEM",
        "long": 136.4330338,
        "postcode": "0822",
        "state": "NT"
    },
    {
        "lat": -12.48861681,
        "locality": "ELRUNDIE",
        "long": 130.940905,
        "postcode": "0822",
        "state": "NT"
    },
    {
        "lat": -13.12725377,
        "locality": "EVA VALLEY",
        "long": 131.0031474,
        "postcode": "0822",
        "state": "NT"
    },
    {
        "lat": -13.06448685,
        "locality": "FINNISS VALLEY",
        "long": 130.9517827,
        "postcode": "0822",
        "state": "NT"
    },
    {
        "lat": -13.85090799,
        "locality": "FLEMING",
        "long": 131.2975161,
        "postcode": "0822",
        "state": "NT"
    },
    {
        "lat": -12.79587253,
        "locality": "FLY CREEK",
        "long": 131.0700157,
        "postcode": "0822",
        "state": "NT"
    },
    {
        "lat": -12.53862952,
        "locality": "FREDS PASS",
        "long": 131.0515258,
        "postcode": "0822",
        "state": "NT"
    },
    {
        "lat": -12.00777086,
        "locality": "GALIWINKU",
        "long": 135.5864427,
        "postcode": "0822",
        "state": "NT"
    },
    {
        "lat": -12.17971082,
        "locality": "GLYDE POINT",
        "long": 131.0799794,
        "postcode": "0822",
        "state": "NT"
    },
    {
        "lat": -13.643283,
        "locality": "GOULBOURN ISLAND",
        "long": 136.947051,
        "postcode": "0822",
        "state": "NT"
    },
    {
        "lat": -11.4973068,
        "locality": "GOULBURN ISLAND",
        "long": 133.4548484,
        "postcode": "0822",
        "state": "NT"
    },
    {
        "lat": -12.34692447,
        "locality": "GUNBALANYA",
        "long": 133.0492311,
        "postcode": "0822",
        "state": "NT"
    },
    {
        "lat": -13.643283,
        "locality": "GUNN POINT",
        "long": 136.947051,
        "postcode": "0822",
        "state": "NT"
    },
    {
        "lat": -13.643283,
        "locality": "HAYES CREEK",
        "long": 136.947051,
        "postcode": "0822",
        "state": "NT"
    },
    {
        "lat": -12.45024526,
        "locality": "HIDDEN VALLEY",
        "long": 130.9036719,
        "postcode": "0822",
        "state": "NT"
    },
    {
        "lat": -12.34404225,
        "locality": "HOTHAM",
        "long": 131.4058522,
        "postcode": "0822",
        "state": "NT"
    },
    {
        "lat": -12.68638471,
        "locality": "HUGHES",
        "long": 131.1007772,
        "postcode": "0822",
        "state": "NT"
    },
    {
        "lat": -12.8662473,
        "locality": "KAKADU",
        "long": 132.4751149,
        "postcode": "0822",
        "state": "NT"
    },
    {
        "lat": -12.37090569,
        "locality": "KOOLPINYAH",
        "long": 131.2102168,
        "postcode": "0822",
        "state": "NT"
    },
    {
        "lat": -12.93083352,
        "locality": "LAKE BENNETT",
        "long": 131.1944707,
        "postcode": "0822",
        "state": "NT"
    },
    {
        "lat": -13.643283,
        "locality": "LAMBELLS LAGOON",
        "long": 136.947051,
        "postcode": "0822",
        "state": "NT"
    },
    {
        "lat": -13.25317338,
        "locality": "LITCHFIELD PARK",
        "long": 130.8462398,
        "postcode": "0822",
        "state": "NT"
    },
    {
        "lat": -13.643283,
        "locality": "LIVINGSTONE",
        "long": 136.947051,
        "postcode": "0822",
        "state": "NT"
    },
    {
        "lat": -12.66634037,
        "locality": "LLOYD CREEK",
        "long": 131.1457668,
        "postcode": "0822",
        "state": "NT"
    },
    {
        "lat": -12.44295777,
        "locality": "MANDORAH",
        "long": 130.7615787,
        "postcode": "0822",
        "state": "NT"
    },
    {
        "lat": -13.643283,
        "locality": "MANINGRIDA",
        "long": 136.947051,
        "postcode": "0822",
        "state": "NT"
    },
    {
        "lat": -13.70834554,
        "locality": "MARANUNGA",
        "long": 130.7085705,
        "postcode": "0822",
        "state": "NT"
    },
    {
        "lat": -13.19932137,
        "locality": "MARGARET RIVER",
        "long": 131.3574052,
        "postcode": "0822",
        "state": "NT"
    },
    {
        "lat": -13.643283,
        "locality": "MCMINNS LAGOON",
        "long": 136.947051,
        "postcode": "0822",
        "state": "NT"
    },
    {
        "lat": -12.379529,
        "locality": "MICKETT CREEK",
        "long": 130.951697,
        "postcode": "0822",
        "state": "NT"
    },
    {
        "lat": -13.643283,
        "locality": "MIDDLE POINT",
        "long": 136.947051,
        "postcode": "0822",
        "state": "NT"
    },
    {
        "lat": -12.10344037,
        "locality": "MILINGIMBI",
        "long": 134.9172943,
        "postcode": "0822",
        "state": "NT"
    },
    {
        "lat": -13.643283,
        "locality": "MILLWOOD",
        "long": 136.947051,
        "postcode": "0822",
        "state": "NT"
    },
    {
        "lat": -13.77934879,
        "locality": "MILYAKBURRA",
        "long": 136.202001,
        "postcode": "0822",
        "state": "NT"
    },
    {
        "lat": -11.14470594,
        "locality": "MINJILANG",
        "long": 132.5724813,
        "postcode": "0822",
        "state": "NT"
    },
    {
        "lat": -13.02955913,
        "locality": "MOUNT BUNDEY",
        "long": 131.751956,
        "postcode": "0822",
        "state": "NT"
    },
    {
        "lat": -12.29096291,
        "locality": "MURRUMUJUK",
        "long": 131.0779057,
        "postcode": "0822",
        "state": "NT"
    },
    {
        "lat": -13.72157548,
        "locality": "NAUIYU",
        "long": 130.7310542,
        "postcode": "0822",
        "state": "NT"
    },
    {
        "lat": -14.62289167,
        "locality": "NEMARLUK",
        "long": 130.4543865,
        "postcode": "0822",
        "state": "NT"
    },
    {
        "lat": -14.33497868,
        "locality": "NGANMARRIYANGA",
        "long": 129.8834932,
        "postcode": "0822",
        "state": "NT"
    },
    {
        "lat": -13.643283,
        "locality": "NGUIU",
        "long": 136.947051,
        "postcode": "0822",
        "state": "NT"
    },
    {
        "lat": -14.28113146,
        "locality": "NUMBULWAR",
        "long": 135.727696,
        "postcode": "0822",
        "state": "NT"
    },
    {
        "lat": -13.95994028,
        "locality": "NUMBURINDI",
        "long": 135.7946389,
        "postcode": "0822",
        "state": "NT"
    },
    {
        "lat": -13.643283,
        "locality": "OENPELLI",
        "long": 136.947051,
        "postcode": "0822",
        "state": "NT"
    },
    {
        "lat": -14.1456977,
        "locality": "PEPPIMENARTI",
        "long": 130.082796,
        "postcode": "0822",
        "state": "NT"
    },
    {
        "lat": -11.39026066,
        "locality": "PIRLANGIMPI",
        "long": 130.4214678,
        "postcode": "0822",
        "state": "NT"
    },
    {
        "lat": -13.643283,
        "locality": "POINT STEPHENS",
        "long": 136.947051,
        "postcode": "0822",
        "state": "NT"
    },
    {
        "lat": -12.54034189,
        "locality": "POINT STUART",
        "long": 131.8321645,
        "postcode": "0822",
        "state": "NT"
    },
    {
        "lat": -13.643283,
        "locality": "PULARUMPI",
        "long": 136.947051,
        "postcode": "0822",
        "state": "NT"
    },
    {
        "lat": -13.643283,
        "locality": "PULUMPA",
        "long": 136.947051,
        "postcode": "0822",
        "state": "NT"
    },
    {
        "lat": -13.05159634,
        "locality": "RAKULA",
        "long": 130.3707089,
        "postcode": "0822",
        "state": "NT"
    },
    {
        "lat": -12.32899612,
        "locality": "RAMINGINING",
        "long": 134.9259152,
        "postcode": "0822",
        "state": "NT"
    },
    {
        "lat": -13.38650542,
        "locality": "ROBIN FALLS",
        "long": 131.1214742,
        "postcode": "0822",
        "state": "NT"
    },
    {
        "lat": -12.99988524,
        "locality": "RUM JUNGLE",
        "long": 131.0198663,
        "postcode": "0822",
        "state": "NT"
    },
    {
        "lat": -12.9305044,
        "locality": "SANDPALMS ROADHOUSE",
        "long": 133.3848319,
        "postcode": "0822",
        "state": "NT"
    },
    {
        "lat": -13.643283,
        "locality": "SOUTHPORT",
        "long": 136.947051,
        "postcode": "0822",
        "state": "NT"
    },
    {
        "lat": -13.18414806,
        "locality": "STAPLETON",
        "long": 131.0258358,
        "postcode": "0822",
        "state": "NT"
    },
    {
        "lat": -14.20132457,
        "locality": "THAMARRURR",
        "long": 129.6399677,
        "postcode": "0822",
        "state": "NT"
    },
    {
        "lat": -14.03882235,
        "locality": "TIPPERARY",
        "long": 130.619275,
        "postcode": "0822",
        "state": "NT"
    },
    {
        "lat": -12.46528731,
        "locality": "TIVENDALE",
        "long": 130.9502272,
        "postcode": "0822",
        "state": "NT"
    },
    {
        "lat": -11.51399925,
        "locality": "TIWI ISLANDS",
        "long": 131.1875059,
        "postcode": "0822",
        "state": "NT"
    },
    {
        "lat": -13.08686447,
        "locality": "TORTILLA FLATS",
        "long": 131.1778852,
        "postcode": "0822",
        "state": "NT"
    },
    {
        "lat": -12.75687265,
        "locality": "TUMBLING WATERS",
        "long": 130.9609622,
        "postcode": "0822",
        "state": "NT"
    },
    {
        "lat": -13.643283,
        "locality": "UMBAKUMBA",
        "long": 136.947051,
        "postcode": "0822",
        "state": "NT"
    },
    {
        "lat": -12.05953061,
        "locality": "VERNON ISLANDS",
        "long": 131.0936969,
        "postcode": "0822",
        "state": "NT"
    },
    {
        "lat": -13.643283,
        "locality": "VIRGINIA",
        "long": 136.947051,
        "postcode": "0822",
        "state": "NT"
    },
    {
        "lat": -13.643283,
        "locality": "WADEYE",
        "long": 136.947051,
        "postcode": "0822",
        "state": "NT"
    },
    {
        "lat": -13.643283,
        "locality": "WAGAIT BEACH",
        "long": 136.947051,
        "postcode": "0822",
        "state": "NT"
    },
    {
        "lat": -12.66325075,
        "locality": "WAK WAK",
        "long": 131.236971,
        "postcode": "0822",
        "state": "NT"
    },
    {
        "lat": -11.65786276,
        "locality": "WARRUWI",
        "long": 133.3782542,
        "postcode": "0822",
        "state": "NT"
    },
    {
        "lat": -13.643283,
        "locality": "WEDDELL",
        "long": 136.947051,
        "postcode": "0822",
        "state": "NT"
    },
    {
        "lat": -12.25508592,
        "locality": "WEST ARNHEM",
        "long": 133.6471255,
        "postcode": "0822",
        "state": "NT"
    },
    {
        "lat": -12.54731927,
        "locality": "WICKHAM",
        "long": 130.9100115,
        "postcode": "0822",
        "state": "NT"
    },
    {
        "lat": -13.643283,
        "locality": "WINNELLIE",
        "long": 136.947051,
        "postcode": "0822",
        "state": "NT"
    },
    {
        "lat": -12.45712713,
        "locality": "WISHART",
        "long": 130.9321025,
        "postcode": "0822",
        "state": "NT"
    },
    {
        "lat": -13.643283,
        "locality": "WOOLANING",
        "long": 136.947051,
        "postcode": "0822",
        "state": "NT"
    },
    {
        "lat": -11.75841975,
        "locality": "WURRUMIYANGA",
        "long": 130.6254299,
        "postcode": "0822",
        "state": "NT"
    },
    {
        "lat": -12.432024,
        "locality": "BERRIMAH",
        "long": 130.932068,
        "postcode": "0828",
        "state": "NT"
    },
    {
        "lat": -12.432024,
        "locality": "KNUCKEY LAGOON",
        "long": 130.932068,
        "postcode": "0828",
        "state": "NT"
    },
    {
        "lat": -12.45763297,
        "locality": "HOLTZE",
        "long": 130.9597671,
        "postcode": "0829",
        "state": "NT"
    },
    {
        "lat": -12.45763297,
        "locality": "PINELANDS",
        "long": 130.9597671,
        "postcode": "0829",
        "state": "NT"
    },
    {
        "lat": -12.52139649,
        "locality": "ARCHER",
        "long": 130.9580765,
        "postcode": "0830",
        "state": "NT"
    },
    {
        "lat": -12.475071,
        "locality": "DRIVER",
        "long": 130.974879,
        "postcode": "0830",
        "state": "NT"
    },
    {
        "lat": -12.475071,
        "locality": "DURACK",
        "long": 130.974879,
        "postcode": "0830",
        "state": "NT"
    },
    {
        "lat": -12.475071,
        "locality": "FARRAR",
        "long": 130.974879,
        "postcode": "0830",
        "state": "NT"
    },
    {
        "lat": -12.475071,
        "locality": "GRAY",
        "long": 130.974879,
        "postcode": "0830",
        "state": "NT"
    },
    {
        "lat": -12.475071,
        "locality": "MARLOW LAGOON",
        "long": 130.974879,
        "postcode": "0830",
        "state": "NT"
    },
    {
        "lat": -12.475071,
        "locality": "MOULDEN",
        "long": 130.974879,
        "postcode": "0830",
        "state": "NT"
    },
    {
        "lat": -12.475071,
        "locality": "PALMERSTON",
        "long": 130.974879,
        "postcode": "0830",
        "state": "NT"
    },
    {
        "lat": -12.475071,
        "locality": "SHOAL BAY",
        "long": 130.974879,
        "postcode": "0830",
        "state": "NT"
    },
    {
        "lat": -12.475071,
        "locality": "WOODROFFE",
        "long": 130.974879,
        "postcode": "0830",
        "state": "NT"
    },
    {
        "lat": -12.475071,
        "locality": "YARRAWONGA",
        "long": 130.974879,
        "postcode": "0830",
        "state": "NT"
    },
    {
        "lat": -12.475071,
        "locality": "PALMERSTON",
        "long": 130.974879,
        "postcode": "0831",
        "state": "NT"
    },
    {
        "lat": -12.49684676,
        "locality": "BAKEWELL",
        "long": 130.9936551,
        "postcode": "0832",
        "state": "NT"
    },
    {
        "lat": -12.51562954,
        "locality": "BELLAMACK",
        "long": 130.9830307,
        "postcode": "0832",
        "state": "NT"
    },
    {
        "lat": -12.502817,
        "locality": "GUNN",
        "long": 130.957712,
        "postcode": "0832",
        "state": "NT"
    },
    {
        "lat": -12.49297483,
        "locality": "JOHNSTON",
        "long": 131.0063506,
        "postcode": "0832",
        "state": "NT"
    },
    {
        "lat": -12.502817,
        "locality": "MITCHELL",
        "long": 130.957712,
        "postcode": "0832",
        "state": "NT"
    },
    {
        "lat": -12.502817,
        "locality": "ROSEBERY",
        "long": 130.957712,
        "postcode": "0832",
        "state": "NT"
    },
    {
        "lat": -12.502817,
        "locality": "ROSEBERY HEIGHTS",
        "long": 130.957712,
        "postcode": "0832",
        "state": "NT"
    },
    {
        "lat": -12.51070433,
        "locality": "ZUCCOLI",
        "long": 131.0058233,
        "postcode": "0832",
        "state": "NT"
    },
    {
        "lat": -12.54686461,
        "locality": "VIRGINIA",
        "long": 131.0234875,
        "postcode": "0834",
        "state": "NT"
    },
    {
        "lat": -12.5231,
        "locality": "Coolalinga",
        "long": 131.0415,
        "postcode": "0835",
        "state": "NT"
    },
    {
        "lat": -12.452568,
        "locality": "HOWARD SPRINGS",
        "long": 131.013741,
        "postcode": "0835",
        "state": "NT"
    },
    {
        "lat": -12.452568,
        "locality": "VIRGINIA",
        "long": 131.013741,
        "postcode": "0835",
        "state": "NT"
    },
    {
        "lat": -12.557754,
        "locality": "HERBERT",
        "long": 131.100668,
        "postcode": "0836",
        "state": "NT"
    },
    {
        "lat": -12.58487247,
        "locality": "HUMPTY DOO",
        "long": 131.1272564,
        "postcode": "0836",
        "state": "NT"
    },
    {
        "lat": -12.704767,
        "locality": "MANTON",
        "long": 131.016647,
        "postcode": "0837",
        "state": "NT"
    },
    {
        "lat": -12.64187171,
        "locality": "NOONAMAH",
        "long": 131.094044,
        "postcode": "0837",
        "state": "NT"
    },
    {
        "lat": -12.71878122,
        "locality": "BERRY SPRINGS",
        "long": 131.0067348,
        "postcode": "0838",
        "state": "NT"
    },
    {
        "lat": -12.52001124,
        "locality": "COOLALINGA",
        "long": 131.0402017,
        "postcode": "0839",
        "state": "NT"
    },
    {
        "lat": -12.72451307,
        "locality": "DUNDEE BEACH",
        "long": 130.3529386,
        "postcode": "0840",
        "state": "NT"
    },
    {
        "lat": -12.76554875,
        "locality": "DUNDEE DOWNS",
        "long": 130.5109414,
        "postcode": "0840",
        "state": "NT"
    },
    {
        "lat": -12.71366907,
        "locality": "DUNDEE FOREST",
        "long": 130.4518371,
        "postcode": "0840",
        "state": "NT"
    },
    {
        "lat": -12.81922863,
        "locality": "DARWIN RIVER",
        "long": 130.969862,
        "postcode": "0841",
        "state": "NT"
    },
    {
        "lat": -13.045118,
        "locality": "BATCHELOR",
        "long": 131.038475,
        "postcode": "0845",
        "state": "NT"
    },
    {
        "lat": -13.210299,
        "locality": "ADELAIDE RIVER",
        "long": 131.095002,
        "postcode": "0846",
        "state": "NT"
    },
    {
        "lat": -14.012122,
        "locality": "PINE CREEK",
        "long": 131.759154,
        "postcode": "0847",
        "state": "NT"
    },
    {
        "lat": -14.46369137,
        "locality": "COSSACK",
        "long": 132.1721041,
        "postcode": "0850",
        "state": "NT"
    },
    {
        "lat": -14.4161067,
        "locality": "EMUNGALAN",
        "long": 132.2418315,
        "postcode": "0850",
        "state": "NT"
    },
    {
        "lat": -14.195911,
        "locality": "KATHERINE",
        "long": 132.365352,
        "postcode": "0850",
        "state": "NT"
    },
    {
        "lat": -14.46576308,
        "locality": "KATHERINE EAST",
        "long": 132.2874375,
        "postcode": "0850",
        "state": "NT"
    },
    {
        "lat": -14.48180579,
        "locality": "KATHERINE SOUTH",
        "long": 132.2598385,
        "postcode": "0850",
        "state": "NT"
    },
    {
        "lat": -14.43162875,
        "locality": "LANSDOWNE",
        "long": 132.3888705,
        "postcode": "0850",
        "state": "NT"
    },
    {
        "lat": -15.711424,
        "locality": "KATHERINE",
        "long": 137.050719,
        "postcode": "0851",
        "state": "NT"
    },
    {
        "lat": -16.07839,
        "locality": "ARNOLD",
        "long": 134.3769898,
        "postcode": "0852",
        "state": "NT"
    },
    {
        "lat": -15.90897497,
        "locality": "BAINES",
        "long": 129.4842959,
        "postcode": "0852",
        "state": "NT"
    },
    {
        "lat": -14.52664756,
        "locality": "BARUNGA",
        "long": 132.8673924,
        "postcode": "0852",
        "state": "NT"
    },
    {
        "lat": -15.711424,
        "locality": "BESWICK",
        "long": 137.050719,
        "postcode": "0852",
        "state": "NT"
    },
    {
        "lat": -14.43207837,
        "locality": "BESWICK CREEK",
        "long": 133.3001701,
        "postcode": "0852",
        "state": "NT"
    },
    {
        "lat": -14.5501072,
        "locality": "BINJARI",
        "long": 132.1841678,
        "postcode": "0852",
        "state": "NT"
    },
    {
        "lat": -16.23196977,
        "locality": "BIRDUM",
        "long": 133.5378622,
        "postcode": "0852",
        "state": "NT"
    },
    {
        "lat": -15.09737856,
        "locality": "BRADSHAW",
        "long": 130.534439,
        "postcode": "0852",
        "state": "NT"
    },
    {
        "lat": -17.80951107,
        "locality": "BUCHANAN",
        "long": 129.6208296,
        "postcode": "0852",
        "state": "NT"
    },
    {
        "lat": -13.65022603,
        "locality": "BULMAN WEEMOL",
        "long": 134.3037985,
        "postcode": "0852",
        "state": "NT"
    },
    {
        "lat": -17.82741422,
        "locality": "CRESWELL",
        "long": 135.8076202,
        "postcode": "0852",
        "state": "NT"
    },
    {
        "lat": -17.41926848,
        "locality": "DAGURAGU",
        "long": 130.8021087,
        "postcode": "0852",
        "state": "NT"
    },
    {
        "lat": -15.711424,
        "locality": "DALY WATERS",
        "long": 137.050719,
        "postcode": "0852",
        "state": "NT"
    },
    {
        "lat": -15.4019318,
        "locality": "DELAMERE",
        "long": 131.6691884,
        "postcode": "0852",
        "state": "NT"
    },
    {
        "lat": -15.711424,
        "locality": "DUNMARRA",
        "long": 137.050719,
        "postcode": "0852",
        "state": "NT"
    },
    {
        "lat": -13.99360017,
        "locality": "EDITH",
        "long": 131.8172473,
        "postcode": "0852",
        "state": "NT"
    },
    {
        "lat": -15.711424,
        "locality": "EDITH RIVER",
        "long": 137.050719,
        "postcode": "0852",
        "state": "NT"
    },
    {
        "lat": -15.07384438,
        "locality": "ELSEY",
        "long": 133.546834,
        "postcode": "0852",
        "state": "NT"
    },
    {
        "lat": -15.711424,
        "locality": "ELSEY STATION",
        "long": 137.050719,
        "postcode": "0852",
        "state": "NT"
    },
    {
        "lat": -14.5152899,
        "locality": "FLORINA",
        "long": 131.9083299,
        "postcode": "0852",
        "state": "NT"
    },
    {
        "lat": -14.15932656,
        "locality": "FLYING FOX",
        "long": 134.1976975,
        "postcode": "0852",
        "state": "NT"
    },
    {
        "lat": -16.34525224,
        "locality": "GREGORY",
        "long": 130.3336523,
        "postcode": "0852",
        "state": "NT"
    },
    {
        "lat": -13.53798419,
        "locality": "GULUNG MARDRULK",
        "long": 133.5636211,
        "postcode": "0852",
        "state": "NT"
    },
    {
        "lat": -18.22634802,
        "locality": "GURINDJI",
        "long": 131.0885202,
        "postcode": "0852",
        "state": "NT"
    },
    {
        "lat": -18.4336,
        "locality": "HELEN SPRINGS STATION",
        "long": 133.876,
        "postcode": "0852",
        "state": "NT"
    },
    {
        "lat": -14.96147762,
        "locality": "JILKMINGGAN",
        "long": 133.292842,
        "postcode": "0852",
        "state": "NT"
    },
    {
        "lat": -17.44449505,
        "locality": "KALKARINDJI",
        "long": 130.832639,
        "postcode": "0852",
        "state": "NT"
    },
    {
        "lat": -15.711424,
        "locality": "KALKARINGI",
        "long": 137.050719,
        "postcode": "0852",
        "state": "NT"
    },
    {
        "lat": -15.711424,
        "locality": "KATHERINE",
        "long": 137.050719,
        "postcode": "0852",
        "state": "NT"
    },
    {
        "lat": -15.711424,
        "locality": "LAJAMANU",
        "long": 137.050719,
        "postcode": "0852",
        "state": "NT"
    },
    {
        "lat": -15.711424,
        "locality": "LARRIMAH",
        "long": 137.050719,
        "postcode": "0852",
        "state": "NT"
    },
    {
        "lat": -15.104596,
        "locality": "LIMMEN",
        "long": 134.936628,
        "postcode": "0852",
        "state": "NT"
    },
    {
        "lat": -15.711424,
        "locality": "MANBULLOO",
        "long": 137.050719,
        "postcode": "0852",
        "state": "NT"
    },
    {
        "lat": -14.524609,
        "locality": "MARANBOY",
        "long": 132.864374,
        "postcode": "0852",
        "state": "NT"
    },
    {
        "lat": -14.96983009,
        "locality": "MATARANKA",
        "long": 133.0434117,
        "postcode": "0852",
        "state": "NT"
    },
    {
        "lat": -16.26282987,
        "locality": "MCARTHUR",
        "long": 135.9389164,
        "postcode": "0852",
        "state": "NT"
    },
    {
        "lat": -15.2254374,
        "locality": "MINIYERI",
        "long": 134.0797817,
        "postcode": "0852",
        "state": "NT"
    },
    {
        "lat": -14.73158731,
        "locality": "NGUKURR",
        "long": 134.7440734,
        "postcode": "0852",
        "state": "NT"
    },
    {
        "lat": -14.11434123,
        "locality": "NITMILUK",
        "long": 132.5362579,
        "postcode": "0852",
        "state": "NT"
    },
    {
        "lat": -15.711424,
        "locality": "NUMBULWAR",
        "long": 137.050719,
        "postcode": "0852",
        "state": "NT"
    },
    {
        "lat": -15.66080497,
        "locality": "PELLEW ISLANDS",
        "long": 136.8142529,
        "postcode": "0852",
        "state": "NT"
    },
    {
        "lat": -16.79514658,
        "locality": "PIGEON HOLE",
        "long": 131.215146,
        "postcode": "0852",
        "state": "NT"
    },
    {
        "lat": -16.75852817,
        "locality": "ROBINSON RIVER",
        "long": 136.9827659,
        "postcode": "0852",
        "state": "NT"
    },
    {
        "lat": -15.65938858,
        "locality": "STURT PLATEAU",
        "long": 132.6120699,
        "postcode": "0852",
        "state": "NT"
    },
    {
        "lat": -18.61662725,
        "locality": "TANAMI EAST",
        "long": 132.7009096,
        "postcode": "0852",
        "state": "NT"
    },
    {
        "lat": -15.66155041,
        "locality": "TIMBER CREEK",
        "long": 130.4960315,
        "postcode": "0852",
        "state": "NT"
    },
    {
        "lat": -16.54851117,
        "locality": "TOP SPRINGS",
        "long": 131.8014849,
        "postcode": "0852",
        "state": "NT"
    },
    {
        "lat": -14.49121431,
        "locality": "URALLA",
        "long": 132.2980338,
        "postcode": "0852",
        "state": "NT"
    },
    {
        "lat": -14.55560838,
        "locality": "VENN",
        "long": 132.539518,
        "postcode": "0852",
        "state": "NT"
    },
    {
        "lat": -16.66340592,
        "locality": "VICTORIA RIVER",
        "long": 131.5356628,
        "postcode": "0852",
        "state": "NT"
    },
    {
        "lat": -15.711424,
        "locality": "VICTORIA RIVER DOWNS",
        "long": 137.050719,
        "postcode": "0852",
        "state": "NT"
    },
    {
        "lat": -20.02830877,
        "locality": "WARUMUNGU",
        "long": 133.952899,
        "postcode": "0852",
        "state": "NT"
    },
    {
        "lat": -15.711424,
        "locality": "WAVE HILL",
        "long": 137.050719,
        "postcode": "0852",
        "state": "NT"
    },
    {
        "lat": -14.43717242,
        "locality": "WILTON",
        "long": 134.9242872,
        "postcode": "0852",
        "state": "NT"
    },
    {
        "lat": -16.4525888,
        "locality": "YARRALIN",
        "long": 130.8418661,
        "postcode": "0852",
        "state": "NT"
    },
    {
        "lat": -14.53113365,
        "locality": "TINDAL",
        "long": 132.3791217,
        "postcode": "0853",
        "state": "NT"
    },
    {
        "lat": -14.558122,
        "locality": "TINDAL RAAF",
        "long": 132.417121,
        "postcode": "0853",
        "state": "NT"
    },
    {
        "lat": -16.503809,
        "locality": "BORROLOOLA",
        "long": 136.424191,
        "postcode": "0854",
        "state": "NT"
    },
    {
        "lat": -16.070754,
        "locality": "KING ASH BAY",
        "long": 136.3091159,
        "postcode": "0854",
        "state": "NT"
    },
    {
        "lat": -19.641301,
        "locality": "TENNANT CREEK",
        "long": 134.173599,
        "postcode": "0860",
        "state": "NT"
    },
    {
        "lat": -18.874571,
        "locality": "BRUNCHILLY",
        "long": 134.500504,
        "postcode": "0861",
        "state": "NT"
    },
    {
        "lat": -18.251528,
        "locality": "TENNANT CREEK",
        "long": 134.463153,
        "postcode": "0861",
        "state": "NT"
    },
    {
        "lat": -18.251528,
        "locality": "AVON DOWNS",
        "long": 134.463153,
        "postcode": "0862",
        "state": "NT"
    },
    {
        "lat": -16.79698963,
        "locality": "CALVERT",
        "long": 137.4667145,
        "postcode": "0862",
        "state": "NT"
    },
    {
        "lat": -18.251528,
        "locality": "CRESSWELL DOWNS",
        "long": 134.463153,
        "postcode": "0862",
        "state": "NT"
    },
    {
        "lat": -18.251528,
        "locality": "ELLIOTT",
        "long": 134.463153,
        "postcode": "0862",
        "state": "NT"
    },
    {
        "lat": -18.251528,
        "locality": "HELEN SPRINGS",
        "long": 134.463153,
        "postcode": "0862",
        "state": "NT"
    },
    {
        "lat": -18.251528,
        "locality": "MUCKATY STATION",
        "long": 134.463153,
        "postcode": "0862",
        "state": "NT"
    },
    {
        "lat": -18.251528,
        "locality": "NEWCASTLE WATERS",
        "long": 134.463153,
        "postcode": "0862",
        "state": "NT"
    },
    {
        "lat": -18.45128815,
        "locality": "NICHOLSON",
        "long": 137.6072968,
        "postcode": "0862",
        "state": "NT"
    },
    {
        "lat": -17.60786065,
        "locality": "PAMAYU",
        "long": 134.055559,
        "postcode": "0862",
        "state": "NT"
    },
    {
        "lat": -18.251528,
        "locality": "PHILLIP CREEK STATION",
        "long": 134.463153,
        "postcode": "0862",
        "state": "NT"
    },
    {
        "lat": -18.251528,
        "locality": "RENNER SPRINGS",
        "long": 134.463153,
        "postcode": "0862",
        "state": "NT"
    },
    {
        "lat": -18.92862068,
        "locality": "TABLELANDS",
        "long": 135.5134605,
        "postcode": "0862",
        "state": "NT"
    },
    {
        "lat": -18.251528,
        "locality": "TENNANT CREEK",
        "long": 134.463153,
        "postcode": "0862",
        "state": "NT"
    },
    {
        "lat": -18.251528,
        "locality": "THREE WAYS",
        "long": 134.463153,
        "postcode": "0862",
        "state": "NT"
    },
    {
        "lat": -18.251528,
        "locality": "WARREGO",
        "long": 134.463153,
        "postcode": "0862",
        "state": "NT"
    },
    {
        "lat": -18.251528,
        "locality": "WOLLOGORANG STATION",
        "long": 134.463153,
        "postcode": "0862",
        "state": "NT"
    },
    {
        "lat": -18.251528,
        "locality": "WYCLIFFE WELL",
        "long": 134.463153,
        "postcode": "0862",
        "state": "NT"
    },
    {
        "lat": -23.702291,
        "locality": "ALICE SPRINGS",
        "long": 133.86314,
        "postcode": "0870",
        "state": "NT"
    },
    {
        "lat": -23.6967102,
        "locality": "ARALUEN",
        "long": 133.853957,
        "postcode": "0870",
        "state": "NT"
    },
    {
        "lat": -23.67527346,
        "locality": "BRAITLING",
        "long": 133.8633044,
        "postcode": "0870",
        "state": "NT"
    },
    {
        "lat": -23.69234565,
        "locality": "CICCONE",
        "long": 133.8678028,
        "postcode": "0870",
        "state": "NT"
    },
    {
        "lat": -23.71460854,
        "locality": "DESERT SPRINGS",
        "long": 133.8867138,
        "postcode": "0870",
        "state": "NT"
    },
    {
        "lat": -23.69030677,
        "locality": "EAST SIDE",
        "long": 133.8971833,
        "postcode": "0870",
        "state": "NT"
    },
    {
        "lat": -23.71080361,
        "locality": "GILLEN",
        "long": 133.8660005,
        "postcode": "0870",
        "state": "NT"
    },
    {
        "lat": -23.70326702,
        "locality": "SADADEEN",
        "long": 133.9010002,
        "postcode": "0870",
        "state": "NT"
    },
    {
        "lat": -23.6730301,
        "locality": "STUART",
        "long": 133.8823863,
        "postcode": "0870",
        "state": "NT"
    },
    {
        "lat": -23.71393895,
        "locality": "THE GAP",
        "long": 133.8740968,
        "postcode": "0870",
        "state": "NT"
    },
    {
        "lat": -23.75188561,
        "locality": "WHITE GUMS",
        "long": 133.7578528,
        "postcode": "0870",
        "state": "NT"
    },
    {
        "lat": -21.949513,
        "locality": "ALICE SPRINGS",
        "long": 131.298809,
        "postcode": "0871",
        "state": "NT"
    },
    {
        "lat": -21.949513,
        "locality": "AHERRENGE",
        "long": 131.298809,
        "postcode": "0872",
        "state": "NT"
    },
    {
        "lat": -21.949513,
        "locality": "ALI CURUNG",
        "long": 131.298809,
        "postcode": "0872",
        "state": "NT"
    },
    {
        "lat": -21.949513,
        "locality": "ALICE SPRINGS",
        "long": 131.298809,
        "postcode": "0872",
        "state": "NT"
    },
    {
        "lat": -21.949513,
        "locality": "AMATA",
        "long": 131.298809,
        "postcode": "0872",
        "state": "NT"
    },
    {
        "lat": -26.12766197,
        "locality": "AMATA",
        "long": 131.1738799,
        "postcode": "0872",
        "state": "SA"
    },
    {
        "lat": -21.949513,
        "locality": "AMOONGUNA",
        "long": 131.298809,
        "postcode": "0872",
        "state": "NT"
    },
    {
        "lat": -21.66430243,
        "locality": "AMPILATWATJA",
        "long": 135.2469212,
        "postcode": "0872",
        "state": "NT"
    },
    {
        "lat": -27.07728273,
        "locality": "ANANGU PITJANTJATJARA YANKUNYTJATJARA",
        "long": 131.2056973,
        "postcode": "0872",
        "state": "NT"
    },
    {
        "lat": -22.99400232,
        "locality": "ANATYE",
        "long": 136.9536687,
        "postcode": "0872",
        "state": "NT"
    },
    {
        "lat": -22.3989311,
        "locality": "ANMATJERE",
        "long": 134.0970699,
        "postcode": "0872",
        "state": "NT"
    },
    {
        "lat": -21.949513,
        "locality": "ANTEWENEGERRDE",
        "long": 131.298809,
        "postcode": "0872",
        "state": "NT"
    },
    {
        "lat": -21.949513,
        "locality": "AREYONGA",
        "long": 131.298809,
        "postcode": "0872",
        "state": "NT"
    },
    {
        "lat": -22.98205755,
        "locality": "ATITJERE",
        "long": 134.932556,
        "postcode": "0872",
        "state": "NT"
    },
    {
        "lat": -26.1906007,
        "locality": "AYERS RANGE SOUTH",
        "long": 133.2680322,
        "postcode": "0872",
        "state": "SA"
    },
    {
        "lat": -21.949513,
        "locality": "AYERS ROCK",
        "long": 131.298809,
        "postcode": "0872",
        "state": "NT"
    },
    {
        "lat": -21.379898,
        "locality": "BARROW CREEK",
        "long": 133.975551,
        "postcode": "0872",
        "state": "NT"
    },
    {
        "lat": -23.36823008,
        "locality": "BURT PLAIN",
        "long": 133.4488082,
        "postcode": "0872",
        "state": "NT"
    },
    {
        "lat": -20.64026544,
        "locality": "CANTEEN CREEK",
        "long": 135.586508,
        "postcode": "0872",
        "state": "NT"
    },
    {
        "lat": -21.64196866,
        "locality": "CHILLA WELL",
        "long": 131.3745808,
        "postcode": "0872",
        "state": "NT"
    },
    {
        "lat": -21.00078643,
        "locality": "COSTELLO",
        "long": 136.7750667,
        "postcode": "0872",
        "state": "NT"
    },
    {
        "lat": -20.94859492,
        "locality": "DAVENPORT",
        "long": 134.8291358,
        "postcode": "0872",
        "state": "NT"
    },
    {
        "lat": -26.5560969,
        "locality": "DE ROSE HILL",
        "long": 133.3111959,
        "postcode": "0872",
        "state": "SA"
    },
    {
        "lat": -21.949513,
        "locality": "DOCKER RIVER",
        "long": 131.298809,
        "postcode": "0872",
        "state": "NT"
    },
    {
        "lat": -22.80352884,
        "locality": "ENGAWALA",
        "long": 134.4572304,
        "postcode": "0872",
        "state": "NT"
    },
    {
        "lat": -21.949513,
        "locality": "ERLDUNDA",
        "long": 131.298809,
        "postcode": "0872",
        "state": "NT"
    },
    {
        "lat": -21.949513,
        "locality": "ERNABELLA",
        "long": 131.298809,
        "postcode": "0872",
        "state": "SA"
    },
    {
        "lat": -26.2796,
        "locality": "ERNABELLA (PUKATJA)",
        "long": 132.134,
        "postcode": "0872",
        "state": "SA"
    },
    {
        "lat": -21.949513,
        "locality": "FINKE",
        "long": 131.298809,
        "postcode": "0872",
        "state": "NT"
    },
    {
        "lat": -21.949513,
        "locality": "FREGON",
        "long": 131.298809,
        "postcode": "0872",
        "state": "SA"
    },
    {
        "lat": -25.50869599,
        "locality": "GHAN",
        "long": 133.945318,
        "postcode": "0872",
        "state": "NT"
    },
    {
        "lat": -21.949513,
        "locality": "GIBSON DESERT NORTH",
        "long": 131.298809,
        "postcode": "0872",
        "state": "WA"
    },
    {
        "lat": -24.94725917,
        "locality": "GIBSON DESERT SOUTH",
        "long": 125.9841842,
        "postcode": "0872",
        "state": "WA"
    },
    {
        "lat": -21.949513,
        "locality": "HAASTS BLUFF",
        "long": 131.298809,
        "postcode": "0872",
        "state": "NT"
    },
    {
        "lat": -24.08113872,
        "locality": "HALE",
        "long": 134.965227,
        "postcode": "0872",
        "state": "NT"
    },
    {
        "lat": -23.02087465,
        "locality": "HART",
        "long": 135.5988293,
        "postcode": "0872",
        "state": "NT"
    },
    {
        "lat": -23.1666667,
        "locality": "HART RANGE",
        "long": 134.8333333,
        "postcode": "0872",
        "state": "NT"
    },
    {
        "lat": -23.93802519,
        "locality": "HERMANNSBURG",
        "long": 132.7960098,
        "postcode": "0872",
        "state": "NT"
    },
    {
        "lat": -24.11229981,
        "locality": "HUGH",
        "long": 133.610012,
        "postcode": "0872",
        "state": "NT"
    },
    {
        "lat": -21.949513,
        "locality": "IMAMPA",
        "long": 131.298809,
        "postcode": "0872",
        "state": "NT"
    },
    {
        "lat": -25.1175562,
        "locality": "IMANPA",
        "long": 132.5687636,
        "postcode": "0872",
        "state": "NT"
    },
    {
        "lat": -21.949513,
        "locality": "INDULKANA",
        "long": 131.298809,
        "postcode": "0872",
        "state": "SA"
    },
    {
        "lat": -26.9661,
        "locality": "INDULKANA (IWANTJA)",
        "long": 133.308,
        "postcode": "0872",
        "state": "SA"
    },
    {
        "lat": -23.4686864,
        "locality": "ININTI STORE",
        "long": 131.6138326,
        "postcode": "0872",
        "state": "NT"
    },
    {
        "lat": -26.97805135,
        "locality": "IWANTJA",
        "long": 133.3066861,
        "postcode": "0872",
        "state": "SA"
    },
    {
        "lat": -21.949513,
        "locality": "JAY CREEK",
        "long": 131.298809,
        "postcode": "0872",
        "state": "NT"
    },
    {
        "lat": -26.11557751,
        "locality": "KALKA",
        "long": 129.1527543,
        "postcode": "0872",
        "state": "SA"
    },
    {
        "lat": -26.76713295,
        "locality": "KALTJITI",
        "long": 132.0298903,
        "postcode": "0872",
        "state": "SA"
    },
    {
        "lat": -24.87255301,
        "locality": "KALTUKATJARA",
        "long": 129.094528,
        "postcode": "0872",
        "state": "NT"
    },
    {
        "lat": -26.16295046,
        "locality": "KANPI",
        "long": 130.1149452,
        "postcode": "0872",
        "state": "SA"
    },
    {
        "lat": -23.6730301,
        "locality": "KINGS CREEK STATION",
        "long": 133.8823863,
        "postcode": "0872",
        "state": "NT"
    },
    {
        "lat": -21.949513,
        "locality": "KINTORE",
        "long": 131.298809,
        "postcode": "0872",
        "state": "NT"
    },
    {
        "lat": -23.2807675,
        "locality": "KIWIRRKURRA",
        "long": 126.954107,
        "postcode": "0872",
        "state": "WA"
    },
    {
        "lat": -25.833333,
        "locality": "KULGERA",
        "long": 133.5,
        "postcode": "0872",
        "state": "NT"
    },
    {
        "lat": -23.34766035,
        "locality": "KUNPARRKA",
        "long": 131.6609525,
        "postcode": "0872",
        "state": "NT"
    },
    {
        "lat": -22.56770511,
        "locality": "LAKE MACKAY",
        "long": 129.836553,
        "postcode": "0872",
        "state": "NT"
    },
    {
        "lat": -26.98843007,
        "locality": "LAMBINA",
        "long": 134.0209294,
        "postcode": "0872",
        "state": "SA"
    },
    {
        "lat": -22.54343571,
        "locality": "LARAMBA",
        "long": 132.7623588,
        "postcode": "0872",
        "state": "NT"
    },
    {
        "lat": -23.6730301,
        "locality": "MACDONNELL RANGE",
        "long": 133.8823863,
        "postcode": "0872",
        "state": "NT"
    },
    {
        "lat": -23.89506921,
        "locality": "MEREENIE",
        "long": 131.8260951,
        "postcode": "0872",
        "state": "NT"
    },
    {
        "lat": -27.02392513,
        "locality": "MIMILI",
        "long": 132.7012923,
        "postcode": "0872",
        "state": "SA"
    },
    {
        "lat": -23.26801669,
        "locality": "MOUNT LIEBIG",
        "long": 131.2776674,
        "postcode": "0872",
        "state": "NT"
    },
    {
        "lat": -23.30598045,
        "locality": "MOUNT ZEIL",
        "long": 132.3999432,
        "postcode": "0872",
        "state": "NT"
    },
    {
        "lat": -21.949513,
        "locality": "MULGA BORE",
        "long": 131.298809,
        "postcode": "0872",
        "state": "NT"
    },
    {
        "lat": -26.1637425,
        "locality": "MURPUTJA",
        "long": 130.1826917,
        "postcode": "0872",
        "state": "SA"
    },
    {
        "lat": -21.949513,
        "locality": "MURPUTJA HOMELANDS",
        "long": 131.298809,
        "postcode": "0872",
        "state": "NT"
    },
    {
        "lat": -25.35069546,
        "locality": "MUTITJULU",
        "long": 131.0673597,
        "postcode": "0872",
        "state": "NT"
    },
    {
        "lat": -23.92272359,
        "locality": "NAMATJIRA",
        "long": 132.5066498,
        "postcode": "0872",
        "state": "NT"
    },
    {
        "lat": -25.27073166,
        "locality": "NGAANYATJARRA-GILES",
        "long": 128.1150802,
        "postcode": "0872",
        "state": "WA"
    },
    {
        "lat": -26.18249261,
        "locality": "NYAPARI",
        "long": 130.2070878,
        "postcode": "0872",
        "state": "SA"
    },
    {
        "lat": -22.64924233,
        "locality": "NYIRRIPI",
        "long": 130.5638643,
        "postcode": "0872",
        "state": "NT"
    },
    {
        "lat": -23.20480045,
        "locality": "PAPUNYA",
        "long": 131.9131315,
        "postcode": "0872",
        "state": "NT"
    },
    {
        "lat": -23.4686864,
        "locality": "PATJARR",
        "long": 131.6138326,
        "postcode": "0872",
        "state": "WA"
    },
    {
        "lat": -25.06768646,
        "locality": "PETERMANN",
        "long": 129.9128112,
        "postcode": "0872",
        "state": "NT"
    },
    {
        "lat": -26.17046294,
        "locality": "PIPALYATJARA",
        "long": 129.1456993,
        "postcode": "0872",
        "state": "SA"
    },
    {
        "lat": -21.949513,
        "locality": "PITJANTJATJARA HOMELANDS",
        "long": 131.298809,
        "postcode": "0872",
        "state": "NT"
    },
    {
        "lat": -26.29118818,
        "locality": "PUKATJA",
        "long": 132.138154,
        "postcode": "0872",
        "state": "SA"
    },
    {
        "lat": -21.98353618,
        "locality": "SANDOVER",
        "long": 135.4818322,
        "postcode": "0872",
        "state": "NT"
    },
    {
        "lat": -21.949513,
        "locality": "SANTA TERESA",
        "long": 131.298809,
        "postcode": "0872",
        "state": "NT"
    },
    {
        "lat": -25.0115767,
        "locality": "SIMPSON",
        "long": 136.92241,
        "postcode": "0872",
        "state": "NT"
    },
    {
        "lat": -20.02389415,
        "locality": "TANAMI",
        "long": 130.5073968,
        "postcode": "0872",
        "state": "NT"
    },
    {
        "lat": -21.48332153,
        "locality": "TARA",
        "long": 133.9991919,
        "postcode": "0872",
        "state": "NT"
    },
    {
        "lat": -23.6730301,
        "locality": "TELEGRAPH STATION",
        "long": 133.8823863,
        "postcode": "0872",
        "state": "NT"
    },
    {
        "lat": -21.949513,
        "locality": "THANGKENHARENGE",
        "long": 131.298809,
        "postcode": "0872",
        "state": "NT"
    },
    {
        "lat": -21.949513,
        "locality": "TI TREE",
        "long": 131.298809,
        "postcode": "0872",
        "state": "NT"
    },
    {
        "lat": -26.34253111,
        "locality": "TIEYON",
        "long": 133.8900188,
        "postcode": "0872",
        "state": "SA"
    },
    {
        "lat": -24.68023025,
        "locality": "TITJIKALA",
        "long": 134.0751086,
        "postcode": "0872",
        "state": "NT"
    },
    {
        "lat": -25.9752687,
        "locality": "TJIRRKARLI",
        "long": 125.3466253,
        "postcode": "0872",
        "state": "WA"
    },
    {
        "lat": -24.343546,
        "locality": "TJUKURLA",
        "long": 128.656027,
        "postcode": "0872",
        "state": "WA"
    },
    {
        "lat": -21.949513,
        "locality": "ULURU",
        "long": 131.298809,
        "postcode": "0872",
        "state": "NT"
    },
    {
        "lat": -21.949513,
        "locality": "UMPANGARA",
        "long": 131.298809,
        "postcode": "0872",
        "state": "NT"
    },
    {
        "lat": -26.47801156,
        "locality": "UMUWA",
        "long": 132.0252848,
        "postcode": "0872",
        "state": "SA"
    },
    {
        "lat": -21.949513,
        "locality": "URAPUNTJA",
        "long": 131.298809,
        "postcode": "0872",
        "state": "NT"
    },
    {
        "lat": -24.12316757,
        "locality": "WALLACE ROCKHOLE",
        "long": 133.0920217,
        "postcode": "0872",
        "state": "NT"
    },
    {
        "lat": -21.949513,
        "locality": "WANARN",
        "long": 131.298809,
        "postcode": "0872",
        "state": "NT"
    },
    {
        "lat": -21.949513,
        "locality": "WARAKURNA",
        "long": 131.298809,
        "postcode": "0872",
        "state": "WA"
    },
    {
        "lat": -27.02469871,
        "locality": "WATARRU",
        "long": 129.9052488,
        "postcode": "0872",
        "state": "SA"
    },
    {
        "lat": -26.52118731,
        "locality": "WATINUMA",
        "long": 131.8810186,
        "postcode": "0872",
        "state": "SA"
    },
    {
        "lat": -21.949513,
        "locality": "WILLOWRA",
        "long": 131.298809,
        "postcode": "0872",
        "state": "NT"
    },
    {
        "lat": -21.74429359,
        "locality": "WILORA",
        "long": 133.7264862,
        "postcode": "0872",
        "state": "NT"
    },
    {
        "lat": -23.4686864,
        "locality": "WINGELLINA",
        "long": 131.6138326,
        "postcode": "0872",
        "state": "WA"
    },
    {
        "lat": -20.46229972,
        "locality": "WUTUNUGURRA",
        "long": 135.2504879,
        "postcode": "0872",
        "state": "NT"
    },
    {
        "lat": -21.949513,
        "locality": "YUELAMU",
        "long": 131.298809,
        "postcode": "0872",
        "state": "NT"
    },
    {
        "lat": -21.949513,
        "locality": "YUENDUMU",
        "long": 131.298809,
        "postcode": "0872",
        "state": "NT"
    },
    {
        "lat": -21.949513,
        "locality": "YULARA",
        "long": 131.298809,
        "postcode": "0872",
        "state": "NT"
    },
    {
        "lat": -26.32328109,
        "locality": "YUNYARINYI",
        "long": 132.4550072,
        "postcode": "0872",
        "state": "SA"
    },
    {
        "lat": -23.76846799,
        "locality": "AMOONGUNA",
        "long": 133.9306532,
        "postcode": "0873",
        "state": "NT"
    },
    {
        "lat": -23.7852622,
        "locality": "ARUMBERA",
        "long": 133.8139564,
        "postcode": "0873",
        "state": "NT"
    },
    {
        "lat": -23.80211632,
        "locality": "CONNELLAN",
        "long": 133.9102463,
        "postcode": "0873",
        "state": "NT"
    },
    {
        "lat": -23.74240746,
        "locality": "ILPARPA",
        "long": 133.8226187,
        "postcode": "0873",
        "state": "NT"
    },
    {
        "lat": -23.77047239,
        "locality": "KILGARIFF",
        "long": 133.8848603,
        "postcode": "0873",
        "state": "NT"
    },
    {
        "lat": -23.74471408,
        "locality": "ROSS",
        "long": 133.9050112,
        "postcode": "0873",
        "state": "NT"
    },
    {
        "lat": -23.64690294,
        "locality": "IRLPME",
        "long": 133.8647591,
        "postcode": "0874",
        "state": "NT"
    },
    {
        "lat": -23.72335988,
        "locality": "MOUNT JOHNS",
        "long": 133.9123902,
        "postcode": "0874",
        "state": "NT"
    },
    {
        "lat": -23.68480339,
        "locality": "UNDOOLYA",
        "long": 133.9224797,
        "postcode": "0874",
        "state": "NT"
    },
    {
        "lat": -23.71350386,
        "locality": "FLYNN",
        "long": 133.8354205,
        "postcode": "0875",
        "state": "NT"
    },
    {
        "lat": -23.68028355,
        "locality": "LARAPINTA",
        "long": 133.8311794,
        "postcode": "0875",
        "state": "NT"
    },
    {
        "lat": -12.50557433,
        "locality": "GAPUWIYAK",
        "long": 135.7954286,
        "postcode": "0880",
        "state": "NT"
    },
    {
        "lat": -11.670366,
        "locality": "GOVE",
        "long": 136.824863,
        "postcode": "0880",
        "state": "NT"
    },
    {
        "lat": -12.21424182,
        "locality": "GUNYANGARA",
        "long": 136.7083085,
        "postcode": "0880",
        "state": "NT"
    },
    {
        "lat": -11.670366,
        "locality": "NHULUNBUY",
        "long": 136.824863,
        "postcode": "0880",
        "state": "NT"
    },
    {
        "lat": -12.2425718,
        "locality": "YIRRKALA",
        "long": 136.8772098,
        "postcode": "0880",
        "state": "NT"
    },
    {
        "lat": -11.670366,
        "locality": "NHULUNBUY",
        "long": 136.824863,
        "postcode": "0881",
        "state": "NT"
    },
    {
        "lat": -13.85078586,
        "locality": "ALYANGULA",
        "long": 136.420066,
        "postcode": "0885",
        "state": "NT"
    },
    {
        "lat": -13.13118,
        "locality": "JABIRU",
        "long": 132.563373,
        "postcode": "0886",
        "state": "NT"
    },
    {
        "lat": -13.643283,
        "locality": "WINNELLIE",
        "long": 136.947051,
        "postcode": "0906",
        "state": "NT"
    },
    {
        "lat": -13.643283,
        "locality": "WINNELLIE",
        "long": 136.947051,
        "postcode": "0907",
        "state": "NT"
    },
    {
        "lat": -12.3718,
        "locality": "CHARLES DARWIN UNIVERSITY",
        "long": 130.869,
        "postcode": "0909",
        "state": "NT"
    },
    {
        "lat": -12.3718,
        "locality": "UNIVERSITY",
        "long": 130.869,
        "postcode": "0909",
        "state": "NT"
    },
    {
        "lat": -33.794883,
        "locality": "SYDNEY",
        "long": 151.268071,
        "postcode": "1001",
        "state": "NSW"
    },
    {
        "lat": -33.794883,
        "locality": "SYDNEY",
        "long": 151.268071,
        "postcode": "1002",
        "state": "NSW"
    },
    {
        "lat": -33.794883,
        "locality": "SYDNEY",
        "long": 151.268071,
        "postcode": "1003",
        "state": "NSW"
    },
    {
        "lat": -33.794883,
        "locality": "SYDNEY",
        "long": 151.268071,
        "postcode": "1004",
        "state": "NSW"
    },
    {
        "lat": -33.794883,
        "locality": "SYDNEY",
        "long": 151.268071,
        "postcode": "1005",
        "state": "NSW"
    },
    {
        "lat": -33.794883,
        "locality": "SYDNEY",
        "long": 151.268071,
        "postcode": "1006",
        "state": "NSW"
    },
    {
        "lat": -33.794883,
        "locality": "SYDNEY",
        "long": 151.268071,
        "postcode": "1007",
        "state": "NSW"
    },
    {
        "lat": -33.794883,
        "locality": "SYDNEY",
        "long": 151.268071,
        "postcode": "1008",
        "state": "NSW"
    },
    {
        "lat": -33.794883,
        "locality": "SYDNEY",
        "long": 151.268071,
        "postcode": "1009",
        "state": "NSW"
    },
    {
        "lat": -33.794883,
        "locality": "SYDNEY",
        "long": 151.268071,
        "postcode": "1010",
        "state": "NSW"
    },
    {
        "lat": -33.794883,
        "locality": "SYDNEY",
        "long": 151.268071,
        "postcode": "1020",
        "state": "NSW"
    },
    {
        "lat": -33.794883,
        "locality": "SYDNEY",
        "long": 151.268071,
        "postcode": "1021",
        "state": "NSW"
    },
    {
        "lat": -33.794883,
        "locality": "SYDNEY",
        "long": 151.268071,
        "postcode": "1022",
        "state": "NSW"
    },
    {
        "lat": -33.794883,
        "locality": "SYDNEY",
        "long": 151.268071,
        "postcode": "1023",
        "state": "NSW"
    },
    {
        "lat": -33.794883,
        "locality": "SYDNEY",
        "long": 151.268071,
        "postcode": "1025",
        "state": "NSW"
    },
    {
        "lat": -33.794883,
        "locality": "SYDNEY",
        "long": 151.268071,
        "postcode": "1026",
        "state": "NSW"
    },
    {
        "lat": -33.794883,
        "locality": "SYDNEY",
        "long": 151.268071,
        "postcode": "1027",
        "state": "NSW"
    },
    {
        "lat": -33.794883,
        "locality": "SYDNEY",
        "long": 151.268071,
        "postcode": "1028",
        "state": "NSW"
    },
    {
        "lat": -33.794883,
        "locality": "SYDNEY",
        "long": 151.268071,
        "postcode": "1029",
        "state": "NSW"
    },
    {
        "lat": -33.794883,
        "locality": "SYDNEY",
        "long": 151.268071,
        "postcode": "1030",
        "state": "NSW"
    },
    {
        "lat": -33.794883,
        "locality": "SYDNEY",
        "long": 151.268071,
        "postcode": "1031",
        "state": "NSW"
    },
    {
        "lat": -33.662834,
        "locality": "SYDNEY",
        "long": 150.874182,
        "postcode": "1032",
        "state": "NSW"
    },
    {
        "lat": -33.794883,
        "locality": "SYDNEY",
        "long": 151.268071,
        "postcode": "1033",
        "state": "NSW"
    },
    {
        "lat": -33.794883,
        "locality": "SYDNEY",
        "long": 151.268071,
        "postcode": "1034",
        "state": "NSW"
    },
    {
        "lat": -33.794883,
        "locality": "SYDNEY",
        "long": 151.268071,
        "postcode": "1035",
        "state": "NSW"
    },
    {
        "lat": -33.794883,
        "locality": "SYDNEY",
        "long": 151.268071,
        "postcode": "1036",
        "state": "NSW"
    },
    {
        "lat": -33.794883,
        "locality": "SYDNEY",
        "long": 151.268071,
        "postcode": "1037",
        "state": "NSW"
    },
    {
        "lat": -33.794883,
        "locality": "SYDNEY",
        "long": 151.268071,
        "postcode": "1038",
        "state": "NSW"
    },
    {
        "lat": -33.794883,
        "locality": "SYDNEY",
        "long": 151.268071,
        "postcode": "1039",
        "state": "NSW"
    },
    {
        "lat": -33.794883,
        "locality": "SYDNEY",
        "long": 151.268071,
        "postcode": "1040",
        "state": "NSW"
    },
    {
        "lat": -33.794883,
        "locality": "SYDNEY",
        "long": 151.268071,
        "postcode": "1041",
        "state": "NSW"
    },
    {
        "lat": -33.794883,
        "locality": "SYDNEY",
        "long": 151.268071,
        "postcode": "1042",
        "state": "NSW"
    },
    {
        "lat": -33.794883,
        "locality": "SYDNEY",
        "long": 151.268071,
        "postcode": "1043",
        "state": "NSW"
    },
    {
        "lat": -33.794883,
        "locality": "SYDNEY",
        "long": 151.268071,
        "postcode": "1044",
        "state": "NSW"
    },
    {
        "lat": -33.794883,
        "locality": "SYDNEY",
        "long": 151.268071,
        "postcode": "1045",
        "state": "NSW"
    },
    {
        "lat": -33.794883,
        "locality": "SYDNEY",
        "long": 151.268071,
        "postcode": "1046",
        "state": "NSW"
    },
    {
        "lat": -33.794883,
        "locality": "SYDNEY",
        "long": 151.268071,
        "postcode": "1100",
        "state": "NSW"
    },
    {
        "lat": -33.794883,
        "locality": "SYDNEY",
        "long": 151.268071,
        "postcode": "1101",
        "state": "NSW"
    },
    {
        "lat": -33.794883,
        "locality": "SYDNEY",
        "long": 151.268071,
        "postcode": "1105",
        "state": "NSW"
    },
    {
        "lat": -33.794883,
        "locality": "SYDNEY",
        "long": 151.268071,
        "postcode": "1106",
        "state": "NSW"
    },
    {
        "lat": -33.794883,
        "locality": "SYDNEY",
        "long": 151.268071,
        "postcode": "1107",
        "state": "NSW"
    },
    {
        "lat": -33.794883,
        "locality": "SYDNEY",
        "long": 151.268071,
        "postcode": "1108",
        "state": "NSW"
    },
    {
        "lat": -33.794883,
        "locality": "SYDNEY",
        "long": 151.268071,
        "postcode": "1109",
        "state": "NSW"
    },
    {
        "lat": -33.794883,
        "locality": "SYDNEY",
        "long": 151.268071,
        "postcode": "1110",
        "state": "NSW"
    },
    {
        "lat": -33.794883,
        "locality": "SYDNEY",
        "long": 151.268071,
        "postcode": "1112",
        "state": "NSW"
    },
    {
        "lat": -33.794883,
        "locality": "SYDNEY",
        "long": 151.268071,
        "postcode": "1113",
        "state": "NSW"
    },
    {
        "lat": -33.794883,
        "locality": "SYDNEY",
        "long": 151.268071,
        "postcode": "1114",
        "state": "NSW"
    },
    {
        "lat": -33.794883,
        "locality": "SYDNEY",
        "long": 151.268071,
        "postcode": "1115",
        "state": "NSW"
    },
    {
        "lat": -33.666729,
        "locality": "SYDNEY",
        "long": 150.866145,
        "postcode": "1116",
        "state": "NSW"
    },
    {
        "lat": -33.664575,
        "locality": "SYDNEY",
        "long": 150.87022,
        "postcode": "1117",
        "state": "NSW"
    },
    {
        "lat": -33.794883,
        "locality": "SYDNEY",
        "long": 151.268071,
        "postcode": "1118",
        "state": "NSW"
    },
    {
        "lat": -33.794883,
        "locality": "SYDNEY",
        "long": 151.268071,
        "postcode": "1119",
        "state": "NSW"
    },
    {
        "lat": -33.794883,
        "locality": "SYDNEY",
        "long": 151.268071,
        "postcode": "1120",
        "state": "NSW"
    },
    {
        "lat": -33.794883,
        "locality": "SYDNEY",
        "long": 151.268071,
        "postcode": "1121",
        "state": "NSW"
    },
    {
        "lat": -33.794883,
        "locality": "SYDNEY",
        "long": 151.268071,
        "postcode": "1122",
        "state": "NSW"
    },
    {
        "lat": -33.794883,
        "locality": "SYDNEY",
        "long": 151.268071,
        "postcode": "1123",
        "state": "NSW"
    },
    {
        "lat": -33.794883,
        "locality": "SYDNEY",
        "long": 151.268071,
        "postcode": "1124",
        "state": "NSW"
    },
    {
        "lat": -33.794883,
        "locality": "SYDNEY",
        "long": 151.268071,
        "postcode": "1125",
        "state": "NSW"
    },
    {
        "lat": -33.794883,
        "locality": "SYDNEY",
        "long": 151.268071,
        "postcode": "1126",
        "state": "NSW"
    },
    {
        "lat": -33.794883,
        "locality": "SYDNEY",
        "long": 151.268071,
        "postcode": "1127",
        "state": "NSW"
    },
    {
        "lat": -33.794883,
        "locality": "SYDNEY",
        "long": 151.268071,
        "postcode": "1128",
        "state": "NSW"
    },
    {
        "lat": -33.794883,
        "locality": "SYDNEY",
        "long": 151.268071,
        "postcode": "1129",
        "state": "NSW"
    },
    {
        "lat": -33.794883,
        "locality": "SYDNEY",
        "long": 151.268071,
        "postcode": "1130",
        "state": "NSW"
    },
    {
        "lat": -33.794883,
        "locality": "SYDNEY",
        "long": 151.268071,
        "postcode": "1131",
        "state": "NSW"
    },
    {
        "lat": -33.66279,
        "locality": "SYDNEY",
        "long": 150.874265,
        "postcode": "1132",
        "state": "NSW"
    },
    {
        "lat": -33.794883,
        "locality": "SYDNEY",
        "long": 151.268071,
        "postcode": "1133",
        "state": "NSW"
    },
    {
        "lat": -33.794883,
        "locality": "SYDNEY",
        "long": 151.268071,
        "postcode": "1134",
        "state": "NSW"
    },
    {
        "lat": -33.794883,
        "locality": "SYDNEY",
        "long": 151.268071,
        "postcode": "1135",
        "state": "NSW"
    },
    {
        "lat": -33.794883,
        "locality": "SYDNEY",
        "long": 151.268071,
        "postcode": "1136",
        "state": "NSW"
    },
    {
        "lat": -33.794883,
        "locality": "SYDNEY",
        "long": 151.268071,
        "postcode": "1137",
        "state": "NSW"
    },
    {
        "lat": -33.794883,
        "locality": "SYDNEY",
        "long": 151.268071,
        "postcode": "1138",
        "state": "NSW"
    },
    {
        "lat": -33.794883,
        "locality": "SYDNEY",
        "long": 151.268071,
        "postcode": "1139",
        "state": "NSW"
    },
    {
        "lat": -33.794883,
        "locality": "SYDNEY",
        "long": 151.268071,
        "postcode": "1140",
        "state": "NSW"
    },
    {
        "lat": -33.794883,
        "locality": "SYDNEY",
        "long": 151.268071,
        "postcode": "1141",
        "state": "NSW"
    },
    {
        "lat": -33.794883,
        "locality": "SYDNEY",
        "long": 151.268071,
        "postcode": "1142",
        "state": "NSW"
    },
    {
        "lat": -33.794883,
        "locality": "SYDNEY",
        "long": 151.268071,
        "postcode": "1143",
        "state": "NSW"
    },
    {
        "lat": -33.794883,
        "locality": "SYDNEY",
        "long": 151.268071,
        "postcode": "1144",
        "state": "NSW"
    },
    {
        "lat": -33.794883,
        "locality": "SYDNEY",
        "long": 151.268071,
        "postcode": "1145",
        "state": "NSW"
    },
    {
        "lat": -33.794883,
        "locality": "SYDNEY",
        "long": 151.268071,
        "postcode": "1146",
        "state": "NSW"
    },
    {
        "lat": -33.794883,
        "locality": "SYDNEY",
        "long": 151.268071,
        "postcode": "1147",
        "state": "NSW"
    },
    {
        "lat": -33.794883,
        "locality": "SYDNEY",
        "long": 151.268071,
        "postcode": "1148",
        "state": "NSW"
    },
    {
        "lat": -33.794883,
        "locality": "SYDNEY",
        "long": 151.268071,
        "postcode": "1149",
        "state": "NSW"
    },
    {
        "lat": -33.794883,
        "locality": "SYDNEY",
        "long": 151.268071,
        "postcode": "1150",
        "state": "NSW"
    },
    {
        "lat": -33.794883,
        "locality": "SYDNEY",
        "long": 151.268071,
        "postcode": "1151",
        "state": "NSW"
    },
    {
        "lat": -33.794883,
        "locality": "SYDNEY",
        "long": 151.268071,
        "postcode": "1152",
        "state": "NSW"
    },
    {
        "lat": -33.794883,
        "locality": "SYDNEY",
        "long": 151.268071,
        "postcode": "1153",
        "state": "NSW"
    },
    {
        "lat": -33.794883,
        "locality": "SYDNEY",
        "long": 151.268071,
        "postcode": "1154",
        "state": "NSW"
    },
    {
        "lat": -33.794883,
        "locality": "SYDNEY",
        "long": 151.268071,
        "postcode": "1155",
        "state": "NSW"
    },
    {
        "lat": -33.794883,
        "locality": "SYDNEY",
        "long": 151.268071,
        "postcode": "1156",
        "state": "NSW"
    },
    {
        "lat": -33.794883,
        "locality": "SYDNEY",
        "long": 151.268071,
        "postcode": "1157",
        "state": "NSW"
    },
    {
        "lat": -33.794883,
        "locality": "SYDNEY",
        "long": 151.268071,
        "postcode": "1158",
        "state": "NSW"
    },
    {
        "lat": -33.794883,
        "locality": "SYDNEY",
        "long": 151.268071,
        "postcode": "1159",
        "state": "NSW"
    },
    {
        "lat": -33.794883,
        "locality": "SYDNEY",
        "long": 151.268071,
        "postcode": "1160",
        "state": "NSW"
    },
    {
        "lat": -33.794883,
        "locality": "SYDNEY",
        "long": 151.268071,
        "postcode": "1161",
        "state": "NSW"
    },
    {
        "lat": -33.794883,
        "locality": "SYDNEY",
        "long": 151.268071,
        "postcode": "1162",
        "state": "NSW"
    },
    {
        "lat": -33.794883,
        "locality": "SYDNEY",
        "long": 151.268071,
        "postcode": "1163",
        "state": "NSW"
    },
    {
        "lat": -33.794883,
        "locality": "SYDNEY",
        "long": 151.268071,
        "postcode": "1164",
        "state": "NSW"
    },
    {
        "lat": -33.794883,
        "locality": "SYDNEY",
        "long": 151.268071,
        "postcode": "1165",
        "state": "NSW"
    },
    {
        "lat": -33.794883,
        "locality": "SYDNEY",
        "long": 151.268071,
        "postcode": "1166",
        "state": "NSW"
    },
    {
        "lat": -33.794883,
        "locality": "SYDNEY",
        "long": 151.268071,
        "postcode": "1167",
        "state": "NSW"
    },
    {
        "lat": -33.794883,
        "locality": "SYDNEY",
        "long": 151.268071,
        "postcode": "1168",
        "state": "NSW"
    },
    {
        "lat": -33.794883,
        "locality": "SYDNEY",
        "long": 151.268071,
        "postcode": "1169",
        "state": "NSW"
    },
    {
        "lat": -33.794883,
        "locality": "SYDNEY",
        "long": 151.268071,
        "postcode": "1170",
        "state": "NSW"
    },
    {
        "lat": -33.794883,
        "locality": "SYDNEY",
        "long": 151.268071,
        "postcode": "1171",
        "state": "NSW"
    },
    {
        "lat": -33.794883,
        "locality": "SYDNEY",
        "long": 151.268071,
        "postcode": "1172",
        "state": "NSW"
    },
    {
        "lat": -33.794883,
        "locality": "SYDNEY",
        "long": 151.268071,
        "postcode": "1173",
        "state": "NSW"
    },
    {
        "lat": -33.794883,
        "locality": "SYDNEY",
        "long": 151.268071,
        "postcode": "1174",
        "state": "NSW"
    },
    {
        "lat": -33.794883,
        "locality": "SYDNEY",
        "long": 151.268071,
        "postcode": "1175",
        "state": "NSW"
    },
    {
        "lat": -33.794883,
        "locality": "SYDNEY",
        "long": 151.268071,
        "postcode": "1176",
        "state": "NSW"
    },
    {
        "lat": -33.794883,
        "locality": "SYDNEY",
        "long": 151.268071,
        "postcode": "1177",
        "state": "NSW"
    },
    {
        "lat": -33.794883,
        "locality": "SYDNEY",
        "long": 151.268071,
        "postcode": "1178",
        "state": "NSW"
    },
    {
        "lat": -33.794883,
        "locality": "SYDNEY",
        "long": 151.268071,
        "postcode": "1179",
        "state": "NSW"
    },
    {
        "lat": -33.794883,
        "locality": "SYDNEY",
        "long": 151.268071,
        "postcode": "1180",
        "state": "NSW"
    },
    {
        "lat": -33.794883,
        "locality": "SYDNEY",
        "long": 151.268071,
        "postcode": "1181",
        "state": "NSW"
    },
    {
        "lat": -33.794883,
        "locality": "SYDNEY",
        "long": 151.268071,
        "postcode": "1182",
        "state": "NSW"
    },
    {
        "lat": -33.794883,
        "locality": "SYDNEY",
        "long": 151.268071,
        "postcode": "1183",
        "state": "NSW"
    },
    {
        "lat": -33.794883,
        "locality": "SYDNEY",
        "long": 151.268071,
        "postcode": "1184",
        "state": "NSW"
    },
    {
        "lat": -33.794883,
        "locality": "SYDNEY",
        "long": 151.268071,
        "postcode": "1185",
        "state": "NSW"
    },
    {
        "lat": -33.794883,
        "locality": "SYDNEY",
        "long": 151.268071,
        "postcode": "1186",
        "state": "NSW"
    },
    {
        "lat": -33.794883,
        "locality": "SYDNEY",
        "long": 151.268071,
        "postcode": "1187",
        "state": "NSW"
    },
    {
        "lat": -33.794883,
        "locality": "SYDNEY",
        "long": 151.268071,
        "postcode": "1188",
        "state": "NSW"
    },
    {
        "lat": -33.794883,
        "locality": "SYDNEY",
        "long": 151.268071,
        "postcode": "1189",
        "state": "NSW"
    },
    {
        "lat": -33.794883,
        "locality": "SYDNEY",
        "long": 151.268071,
        "postcode": "1190",
        "state": "NSW"
    },
    {
        "lat": -33.794883,
        "locality": "SYDNEY",
        "long": 151.268071,
        "postcode": "1191",
        "state": "NSW"
    },
    {
        "lat": -34.790684,
        "locality": "SYDNEY",
        "long": 147.685283,
        "postcode": "1192",
        "state": "NSW"
    },
    {
        "lat": -33.794883,
        "locality": "SYDNEY",
        "long": 151.268071,
        "postcode": "1193",
        "state": "NSW"
    },
    {
        "lat": -33.794883,
        "locality": "SYDNEY",
        "long": 151.268071,
        "postcode": "1194",
        "state": "NSW"
    },
    {
        "lat": -33.794883,
        "locality": "SYDNEY",
        "long": 151.268071,
        "postcode": "1195",
        "state": "NSW"
    },
    {
        "lat": -33.794883,
        "locality": "SYDNEY",
        "long": 151.268071,
        "postcode": "1196",
        "state": "NSW"
    },
    {
        "lat": -33.794883,
        "locality": "SYDNEY",
        "long": 151.268071,
        "postcode": "1197",
        "state": "NSW"
    },
    {
        "lat": -33.794883,
        "locality": "SYDNEY",
        "long": 151.268071,
        "postcode": "1198",
        "state": "NSW"
    },
    {
        "lat": -33.794883,
        "locality": "SYDNEY",
        "long": 151.268071,
        "postcode": "1199",
        "state": "NSW"
    },
    {
        "lat": -33.794883,
        "locality": "SYDNEY",
        "long": 151.268071,
        "postcode": "1201",
        "state": "NSW"
    },
    {
        "lat": -33.794883,
        "locality": "SYDNEY",
        "long": 151.268071,
        "postcode": "1202",
        "state": "NSW"
    },
    {
        "lat": -33.794883,
        "locality": "SYDNEY",
        "long": 151.268071,
        "postcode": "1203",
        "state": "NSW"
    },
    {
        "lat": -33.794883,
        "locality": "SYDNEY",
        "long": 151.268071,
        "postcode": "1205",
        "state": "NSW"
    },
    {
        "lat": -33.794883,
        "locality": "SYDNEY",
        "long": 151.268071,
        "postcode": "1207",
        "state": "NSW"
    },
    {
        "lat": -29.816475,
        "locality": "HAYMARKET",
        "long": 151.659454,
        "postcode": "1208",
        "state": "NSW"
    },
    {
        "lat": -33.891788,
        "locality": "AUSTRALIA SQUARE",
        "long": 151.176251,
        "postcode": "1209",
        "state": "NSW"
    },
    {
        "lat": -33.891788,
        "locality": "AUSTRALIA SQUARE",
        "long": 151.176251,
        "postcode": "1210",
        "state": "NSW"
    },
    {
        "lat": -33.891788,
        "locality": "AUSTRALIA SQUARE",
        "long": 151.176251,
        "postcode": "1211",
        "state": "NSW"
    },
    {
        "lat": -33.891788,
        "locality": "AUSTRALIA SQUARE",
        "long": 151.176251,
        "postcode": "1212",
        "state": "NSW"
    },
    {
        "lat": -33.891788,
        "locality": "AUSTRALIA SQUARE",
        "long": 151.176251,
        "postcode": "1213",
        "state": "NSW"
    },
    {
        "lat": -33.891788,
        "locality": "AUSTRALIA SQUARE",
        "long": 151.176251,
        "postcode": "1214",
        "state": "NSW"
    },
    {
        "lat": -33.891788,
        "locality": "AUSTRALIA SQUARE",
        "long": 151.176251,
        "postcode": "1215",
        "state": "NSW"
    },
    {
        "lat": -33.741311,
        "locality": "GROSVENOR PLACE",
        "long": 151.034025,
        "postcode": "1216",
        "state": "NSW"
    },
    {
        "lat": -33.741311,
        "locality": "GROSVENOR PLACE",
        "long": 151.034025,
        "postcode": "1217",
        "state": "NSW"
    },
    {
        "lat": -33.741311,
        "locality": "GROSVENOR PLACE",
        "long": 151.034025,
        "postcode": "1218",
        "state": "NSW"
    },
    {
        "lat": -33.741311,
        "locality": "GROSVENOR PLACE",
        "long": 151.034025,
        "postcode": "1219",
        "state": "NSW"
    },
    {
        "lat": -33.741311,
        "locality": "GROSVENOR PLACE",
        "long": 151.034025,
        "postcode": "1220",
        "state": "NSW"
    },
    {
        "lat": -33.86533,
        "locality": "ROYAL EXCHANGE",
        "long": 151.207905,
        "postcode": "1221",
        "state": "NSW"
    },
    {
        "lat": -33.86533,
        "locality": "ROYAL EXCHANGE",
        "long": 151.207905,
        "postcode": "1222",
        "state": "NSW"
    },
    {
        "lat": -33.86533,
        "locality": "ROYAL EXCHANGE",
        "long": 151.207905,
        "postcode": "1223",
        "state": "NSW"
    },
    {
        "lat": -33.86533,
        "locality": "ROYAL EXCHANGE",
        "long": 151.207905,
        "postcode": "1224",
        "state": "NSW"
    },
    {
        "lat": -33.86533,
        "locality": "ROYAL EXCHANGE",
        "long": 151.207905,
        "postcode": "1225",
        "state": "NSW"
    },
    {
        "lat": -33.871749,
        "locality": "QUEEN VICTORIA BUILDING",
        "long": 151.206708,
        "postcode": "1226",
        "state": "NSW"
    },
    {
        "lat": -33.871749,
        "locality": "QUEEN VICTORIA BUILDING",
        "long": 151.206708,
        "postcode": "1227",
        "state": "NSW"
    },
    {
        "lat": -33.871749,
        "locality": "QUEEN VICTORIA BUILDING",
        "long": 151.206708,
        "postcode": "1228",
        "state": "NSW"
    },
    {
        "lat": -33.871749,
        "locality": "QUEEN VICTORIA BUILDING",
        "long": 151.206708,
        "postcode": "1229",
        "state": "NSW"
    },
    {
        "lat": -33.871749,
        "locality": "QUEEN VICTORIA BUILDING",
        "long": 151.206708,
        "postcode": "1230",
        "state": "NSW"
    },
    {
        "lat": -33.815551,
        "locality": "SYDNEY SOUTH",
        "long": 151.042528,
        "postcode": "1231",
        "state": "NSW"
    },
    {
        "lat": -33.815551,
        "locality": "SYDNEY SOUTH",
        "long": 151.042528,
        "postcode": "1232",
        "state": "NSW"
    },
    {
        "lat": -33.815551,
        "locality": "SYDNEY SOUTH",
        "long": 151.042528,
        "postcode": "1233",
        "state": "NSW"
    },
    {
        "lat": -33.815551,
        "locality": "SYDNEY SOUTH",
        "long": 151.042528,
        "postcode": "1234",
        "state": "NSW"
    },
    {
        "lat": -33.815551,
        "locality": "SYDNEY SOUTH",
        "long": 151.042528,
        "postcode": "1235",
        "state": "NSW"
    },
    {
        "lat": -29.816475,
        "locality": "HAYMARKET",
        "long": 151.659454,
        "postcode": "1236",
        "state": "NSW"
    },
    {
        "lat": -29.816475,
        "locality": "HAYMARKET",
        "long": 151.659454,
        "postcode": "1237",
        "state": "NSW"
    },
    {
        "lat": -29.816475,
        "locality": "HAYMARKET",
        "long": 151.659454,
        "postcode": "1238",
        "state": "NSW"
    },
    {
        "lat": -29.816475,
        "locality": "HAYMARKET",
        "long": 151.659454,
        "postcode": "1239",
        "state": "NSW"
    },
    {
        "lat": -29.816475,
        "locality": "HAYMARKET",
        "long": 151.659454,
        "postcode": "1240",
        "state": "NSW"
    },
    {
        "lat": -33.794883,
        "locality": "SYDNEY",
        "long": 151.268071,
        "postcode": "1291",
        "state": "NSW"
    },
    {
        "lat": -33.794883,
        "locality": "SYDNEY",
        "long": 151.268071,
        "postcode": "1292",
        "state": "NSW"
    },
    {
        "lat": -33.794883,
        "locality": "SYDNEY",
        "long": 151.268071,
        "postcode": "1293",
        "state": "NSW"
    },
    {
        "lat": -33.794883,
        "locality": "SYDNEY",
        "long": 151.268071,
        "postcode": "1294",
        "state": "NSW"
    },
    {
        "lat": -33.794883,
        "locality": "SYDNEY",
        "long": 151.268071,
        "postcode": "1295",
        "state": "NSW"
    },
    {
        "lat": -33.794883,
        "locality": "SYDNEY",
        "long": 151.268071,
        "postcode": "1296",
        "state": "NSW"
    },
    {
        "lat": -33.794883,
        "locality": "SYDNEY",
        "long": 151.268071,
        "postcode": "1297",
        "state": "NSW"
    },
    {
        "lat": -33.794883,
        "locality": "SYDNEY",
        "long": 151.268071,
        "postcode": "1298",
        "state": "NSW"
    },
    {
        "lat": -33.794883,
        "locality": "SYDNEY",
        "long": 151.268071,
        "postcode": "1299",
        "state": "NSW"
    },
    {
        "lat": -33.877331,
        "locality": "DARLINGHURST",
        "long": 151.220876,
        "postcode": "1300",
        "state": "NSW"
    },
    {
        "lat": -33.9508,
        "locality": "EASTERN SUBURBS MC",
        "long": 151.21,
        "postcode": "1314",
        "state": "NSW"
    },
    {
        "lat": -33.82269,
        "locality": "POTTS POINT",
        "long": 151.117575,
        "postcode": "1335",
        "state": "NSW"
    },
    {
        "lat": -35.537721,
        "locality": "KINGS CROSS",
        "long": 148.021014,
        "postcode": "1340",
        "state": "NSW"
    },
    {
        "lat": -33.88871,
        "locality": "WOOLLAHRA",
        "long": 151.240508,
        "postcode": "1350",
        "state": "NSW"
    },
    {
        "lat": -33.893739,
        "locality": "BONDI JUNCTION",
        "long": 151.262502,
        "postcode": "1355",
        "state": "NSW"
    },
    {
        "lat": -33.87584,
        "locality": "DOUBLE BAY",
        "long": 151.241938,
        "postcode": "1360",
        "state": "NSW"
    },
    {
        "lat": -33.884217,
        "locality": "BROADWAY",
        "long": 151.199825,
        "postcode": "1401",
        "state": "NSW"
    },
    {
        "lat": -34.0641,
        "locality": "SOUTHERN SUBURBS MC",
        "long": 151.094,
        "postcode": "1419",
        "state": "NSW"
    },
    {
        "lat": -33.726098,
        "locality": "STRAWBERRY HILLS",
        "long": 150.931838,
        "postcode": "1420",
        "state": "NSW"
    },
    {
        "lat": -33.726098,
        "locality": "STRAWBERRY HILLS",
        "long": 150.931838,
        "postcode": "1422",
        "state": "NSW"
    },
    {
        "lat": -33.726098,
        "locality": "STRAWBERRY HILLS",
        "long": 150.931838,
        "postcode": "1423",
        "state": "NSW"
    },
    {
        "lat": -33.726098,
        "locality": "STRAWBERRY HILLS",
        "long": 150.931838,
        "postcode": "1424",
        "state": "NSW"
    },
    {
        "lat": -33.726098,
        "locality": "STRAWBERRY HILLS",
        "long": 150.931838,
        "postcode": "1425",
        "state": "NSW"
    },
    {
        "lat": -33.726098,
        "locality": "STRAWBERRY HILLS",
        "long": 150.931838,
        "postcode": "1426",
        "state": "NSW"
    },
    {
        "lat": -33.726098,
        "locality": "STRAWBERRY HILLS",
        "long": 150.931838,
        "postcode": "1427",
        "state": "NSW"
    },
    {
        "lat": -33.726098,
        "locality": "STRAWBERRY HILLS",
        "long": 150.931838,
        "postcode": "1428",
        "state": "NSW"
    },
    {
        "lat": -33.726098,
        "locality": "STRAWBERRY HILLS",
        "long": 150.931838,
        "postcode": "1429",
        "state": "NSW"
    },
    {
        "lat": -33.890232,
        "locality": "EVELEIGH",
        "long": 151.199489,
        "postcode": "1430",
        "state": "NSW"
    },
    {
        "lat": -33.711785,
        "locality": "ALEXANDRIA",
        "long": 151.108248,
        "postcode": "1435",
        "state": "NSW"
    },
    {
        "lat": -33.902836,
        "locality": "WATERLOO",
        "long": 151.057914,
        "postcode": "1440",
        "state": "NSW"
    },
    {
        "lat": -33.902836,
        "locality": "WATERLOO",
        "long": 151.057914,
        "postcode": "1441",
        "state": "NSW"
    },
    {
        "lat": -34.083089,
        "locality": "ROSEBERY",
        "long": 151.007691,
        "postcode": "1445",
        "state": "NSW"
    },
    {
        "lat": -30.305815,
        "locality": "CAMPERDOWN",
        "long": 153.13679,
        "postcode": "1450",
        "state": "NSW"
    },
    {
        "lat": -33.947087,
        "locality": "BOTANY",
        "long": 151.197644,
        "postcode": "1455",
        "state": "NSW"
    },
    {
        "lat": -33.926669,
        "locality": "MASCOT",
        "long": 151.210791,
        "postcode": "1460",
        "state": "NSW"
    },
    {
        "lat": -33.888549,
        "locality": "KENSINGTON",
        "long": 151.140735,
        "postcode": "1465",
        "state": "NSW"
    },
    {
        "lat": -33.906561,
        "locality": "UNSW SYDNEY",
        "long": 151.234417,
        "postcode": "1466",
        "state": "NSW"
    },
    {
        "lat": -33.842999,
        "locality": "DRUMMOYNE",
        "long": 151.151958,
        "postcode": "1470",
        "state": "NSW"
    },
    {
        "lat": -33.90911,
        "locality": "MARRICKVILLE",
        "long": 151.15334,
        "postcode": "1475",
        "state": "NSW"
    },
    {
        "lat": -33.90911,
        "locality": "MARRICKVILLE",
        "long": 151.15334,
        "postcode": "1476",
        "state": "NSW"
    },
    {
        "lat": -33.935923,
        "locality": "KINGSGROVE",
        "long": 151.100027,
        "postcode": "1480",
        "state": "NSW"
    },
    {
        "lat": -33.9646,
        "locality": "HURSTVILLE BC",
        "long": 151.101,
        "postcode": "1481",
        "state": "NSW"
    },
    {
        "lat": -33.9386,
        "locality": "KINGSGROVE DC",
        "long": 151.101,
        "postcode": "1484",
        "state": "NSW"
    },
    {
        "lat": -33.974354,
        "locality": "KOGARAH",
        "long": 151.140345,
        "postcode": "1485",
        "state": "NSW"
    },
    {
        "lat": -34.035878,
        "locality": "MIRANDA",
        "long": 151.107201,
        "postcode": "1490",
        "state": "NSW"
    },
    {
        "lat": -33.975869,
        "locality": "HURSTVILLE",
        "long": 151.088939,
        "postcode": "1493",
        "state": "NSW"
    },
    {
        "lat": -34.046927,
        "locality": "CARINGBAH",
        "long": 151.123943,
        "postcode": "1495",
        "state": "NSW"
    },
    {
        "lat": -34.015705,
        "locality": "SUTHERLAND",
        "long": 151.0622,
        "postcode": "1499",
        "state": "NSW"
    },
    {
        "lat": -33.824607,
        "locality": "WEST CHATSWOOD",
        "long": 151.207261,
        "postcode": "1515",
        "state": "NSW"
    },
    {
        "lat": -33.812636,
        "locality": "NORTHBRIDGE",
        "long": 151.214797,
        "postcode": "1560",
        "state": "NSW"
    },
    {
        "lat": -33.865367,
        "locality": "MILSONS POINT",
        "long": 151.193071,
        "postcode": "1565",
        "state": "NSW"
    },
    {
        "lat": -33.808087,
        "locality": "ARTARMON",
        "long": 151.192733,
        "postcode": "1570",
        "state": "NSW"
    },
    {
        "lat": -33.83459,
        "locality": "CROWS NEST",
        "long": 151.20085,
        "postcode": "1585",
        "state": "NSW"
    },
    {
        "lat": -33.292001,
        "locality": "ST LEONARDS",
        "long": 151.468652,
        "postcode": "1590",
        "state": "NSW"
    },